~Version Information Block
VERS .                 2.00:  CWLS LOG ASCII STANDARD - VERSION 2.00
WRAP .                   NO:  One line per depth step
~Well Information Block
#MNEM.UNIT        Data Type   Information
#---------- ----------------  -----------
STRT .M          1048.05480:  START DEPTH
STOP .M          2676.90600:  STOP DEPTH
STEP .M             0.15240:  STEP
NULL .              -999.25:  NULL VALUE
COMP .                     :  COMPANY
WELL .            1-CA-3-PR:  WELL
FLD  .                     :  FIELD
LOC  .                     :  LOCATION
CTRY .                     :  COUNTRY
STAT .                     :  STATE
CNTY .                     :  COUNTY
SRVC .                     :  SERVICE COMPANY
DATE .                     :  DATE
API  .                     :  API NUMBER
UWI  .                     :  UNIQUE WELL ID
~Curve Information Block
#MNEM.UNIT         API CODE   Curve Description
#---------- ----------------  -----------------
DEPTH.M                    :  INDEX503
CALI .MM                   :  Caliper
DRHO .G/C3                 :  Density Correction
DRHO .G/C3                 :  Density Correction
DT   .US/M                 :  Sonic Transit Time (Slowness)
GR   .GAPI                 :  Gamma Ray
GR   .GAPI                 :  Gamma Ray
ILD  .OHMM                 :  Deep induction resistivity
ILM  .OHMM                 :  Medium induction resistivity
ITT  .                     :  Sonic Transit Time (Slowness)
NPHI .%                    :  Neutron Porosity
NPHI .%                    :  Neutron Porosity
RHOB .G/C3                 :  Bulk Density
RHOB .G/C3                 :  Bulk Density
RLAT .OHMM                 :  Laterolog 3 resistivity
RLN  .OHMM                 :  copy of Laterolog 3 resistivity (RLAT)
SP   .MV                   :  Spontaneous potential
~Parameter Information Block
#MNEM.UNIT            Value   Description
#---------- ----------------  -----------
BS1  .              17 1/2":  Bit size 1
BS2  .              12 1/4":  Bit size 2
BS3  .                81 2/:  Bit size 3
CS1  .              13 3/8":  Casing shoe 1 - Casing size
CS2  .               9 5/8":  Casing shoe 2 - Casing size
CS3  .               5 1/2":  Casing shoe 3 - Casing size
CUR_INT_BOT.M            2676.906:  
EDF  .M                 532:  Elevation of Drill Floor
EGL  .M               526.2:  Elevation of ground level
EKB  .M               532.3:  
QCCD .                 high:  Quality level of the Log data
QCCO .                     :  Company responsible for the Log quality control
QCDT .           1999/01/13:  Date of the Log quality control
QCRM .     carregado por Bucheb:  Comments on the Log quality
QCST .                final:  Status of the Log quality
TAPE_NAME.     1CA__0003__PR_1CA__0003__PR.dlis:  
PROJECT.             Mestrado:  
SET  .                 WIRE:  
~Other Information Block
REMARKS:
R1: VIDE DEMAIS ATRIBUTOS DE CABECALHO (LOG HEADER) NO FILE CORRESPONDENTE

R1: VIDE DEMAIS ATRIBUTOS DE CABECALHO (LOG HEADER) NO FILE CORRESPONDENTE

R1: VIDE DEMAIS ATRIBUTOS DE CABECALHO (LOG HEADER) NO FILE CORRESPONDENTE

TOOL_TABLE:
TOOL #0:
NAME:            FROM__DIL
DESCRIPTION:     OH WIRELINE
TRADEMARK-NAME:  FROM  DIL
GENERIC-NAME:    OH WIRELINE
STATUS:          TRUE
TOOL #0:
NAME:            FROM__BCS
DESCRIPTION:     OH WIRELINE
TRADEMARK-NAME:  FROM  BCS
GENERIC-NAME:    OH WIRELINE
STATUS:          TRUE
TOOL #0:
NAME:            FROM__CDN
DESCRIPTION:     OH WIRELINE
TRADEMARK-NAME:  FROM  CDN
GENERIC-NAME:    OH WIRELINE
STATUS:          TRUE
# 
~A       DEPTH           CALI           DRHO           DRHO             DT             GR             GR            ILD            ILM            ITT           NPHI           NPHI           RHOB           RHOB           RLAT            RLN             SP 
# ...
    1584.50280       250.1900    -999.250000       0.095000       224.4094      -999.2500        41.8000         9.5500        14.3880         0.0000      -999.2500        10.9000      -999.2500         2.3910        16.1440        16.1440      -999.2500
    1584.65520       249.6820    -999.250000       0.092000       226.0499      -999.2500        41.1000         9.9770        15.1010         0.0000      -999.2500        11.4800      -999.2500         2.3830        16.7880        16.7880      -999.2500
    1584.80760       250.4440    -999.250000       0.087000       227.6903      -999.2500        40.3000        10.3280        15.6680         0.0000      -999.2500        11.8300      -999.2500         2.3750        16.6340        16.6340      -999.2500
    1584.96000       250.1900    -999.250000       0.080000       229.3307      -999.2500        40.2000        10.6410        15.8850         0.0000      -999.2500        11.7000      -999.2500         2.3690        15.9960        15.9960      -999.2500
    1585.11240       250.1900    -999.250000       0.075000       229.3307      -999.2500        41.8000        10.8890        15.8490         0.0000      -999.2500        11.3100      -999.2500         2.3630        15.4880        15.4880      -999.2500
    1585.26480       251.2060    -999.250000       0.076000       228.6745      -999.2500        43.0000        10.9900        15.9590         0.0000      -999.2500        11.1700      -999.2500         2.3590        15.2050        15.2050      -999.2500
    1585.41720       251.2060    -999.250000       0.083000       228.0184      -999.2500        43.8000        11.0920        16.0690         0.0000      -999.2500        11.5800      -999.2500         2.3600        15.1360        15.1360      -999.2500
    1585.56960       251.2060    -999.250000       0.092000       227.0341      -999.2500        44.5000        11.1940        16.2180         0.0000      -999.2500        12.1300      -999.2500         2.3640        15.0660        15.0660        52.2000
    1585.72200       251.2060    -999.250000       0.097000       226.3780      -999.2500        45.6000        11.2980        16.2550         0.0000      -999.2500        12.2400      -999.2500         2.3670        15.2410        15.2410        52.6000
    1585.87440       250.6980    -999.250000       0.098000       226.0499      -999.2500        46.8000        11.4550        16.4060         0.0000      -999.2500        11.8600      -999.2500         2.3650        15.7040        15.7040        51.9000
    1586.02680       250.6980    -999.250000       0.095000       225.3937      -999.2500        47.2000        11.6680        16.6340         0.0000      -999.2500        11.3900      -999.2500         2.3620        16.0320        16.0320        51.1000
    1586.17920       250.4440    -999.250000       0.092000       223.7533      -999.2500        47.3000        11.8850        17.0610         0.0000      -999.2500        11.1600      -999.2500         2.3590        16.2930        16.2930        51.1000
    1586.33160       250.6980    -999.250000       0.090000       223.4252      -999.2500        46.1000        12.0780        17.4980         0.0000      -999.2500        11.1500      -999.2500         2.3600        16.6720        16.6720        50.4000
    1586.48400       250.4440    -999.250000       0.090000       224.7375      -999.2500        43.5000        12.2740        17.7830         0.0000      -999.2500        11.1800      -999.2500         2.3670        17.0220        17.0220        50.1000
    1586.63640       250.4440    -999.250000       0.092000       225.3937      -999.2500        41.4000        12.5310        18.1130         0.0000      -999.2500        11.0300      -999.2500         2.3760        17.2580        17.2580        49.7000
    1586.78880       251.2060    -999.250000       0.093000       224.7375      -999.2500        41.5000        12.7060        18.3230         0.0000      -999.2500        10.7400      -999.2500         2.3830        17.4180        17.4180        49.3000
    1586.94120       250.6980    -999.250000       0.095000       223.4252      -999.2500        43.2000        12.9120        18.5780         0.0000      -999.2500        10.5900      -999.2500         2.3850        17.6200        17.6200        50.4000
    1587.09360       251.2060    -999.250000       0.096000       223.0971      -999.2500        44.6000        13.0620        18.7930         0.0000      -999.2500        10.7400      -999.2500         2.3830        17.6600        17.6600        50.4000
    1587.24600       251.2060    -999.250000       0.097000       224.0814      -999.2500        45.3000        13.1830        18.8360         0.0000      -999.2500        11.0700      -999.2500         2.3770        17.7010        17.7010        50.1000
    1587.39840       251.2060    -999.250000       0.100000       225.3937      -999.2500        44.9000        13.3050        18.9230         0.0000      -999.2500        11.4100      -999.2500         2.3730        17.6600        17.6600        51.1000
    1587.55080       250.4440    -999.250000       0.103000       226.0499      -999.2500        43.9000        13.3350        18.9230         0.0000      -999.2500        11.6200      -999.2500         2.3690        17.5390        17.5390        51.3000
    1587.70320       250.1900    -999.250000       0.102000       226.3780      -999.2500        43.5000        13.3970        18.8360         0.0000      -999.2500        11.5400      -999.2500         2.3640        17.2980        17.2980        51.3000
    1587.85560       250.1900    -999.250000       0.097000       226.3780      -999.2500        43.8000        13.3050        18.7500         0.0000      -999.2500        11.2100      -999.2500         2.3570        17.2190        17.2190        50.8000
    1588.00800       250.1900    -999.250000       0.094000       226.7061      -999.2500        43.7000        13.2430        18.3230         0.0000      -999.2500        10.9700      -999.2500         2.3500        17.1400        17.1400        50.8000
    1588.16040       250.1900    -999.250000       0.094000       228.0184      -999.2500        42.6000        13.1830        17.9060         0.0000      -999.2500        11.1700      -999.2500         2.3470        16.7490        16.7490        49.7000
    1588.31280       250.1900    -999.250000       0.093000       230.3150      -999.2500        42.6000        13.2430        17.4580         0.0000      -999.2500        11.7300      -999.2500         2.3450        16.1440        16.1440        49.2000
    1588.46520       249.6820    -999.250000       0.090000       230.9711      -999.2500        44.6000        13.3050        17.2980         0.0000      -999.2500        12.1000      -999.2500         2.3430        15.7760        15.7760        49.1000
    1588.61760       249.6820    -999.250000       0.089000       229.9869      -999.2500        46.3000        13.4590        17.4180         1.0000      -999.2500        11.9000      -999.2500         2.3480        15.8120        15.8120        48.9000
    1588.77000       249.6820    -999.250000       0.090000       228.0184      -999.2500        46.2000        13.6140        18.0720         0.0000      -999.2500        11.2600      -999.2500         2.3630        16.2930        16.2930        48.8000
    1588.92240       250.1900    -999.250000       0.094000       226.0499      -999.2500        44.6000        13.8680        18.7930         0.0000      -999.2500        10.7600      -999.2500         2.3810        17.2190        17.2190        48.4000
    1589.07480       250.4440    -999.250000       0.098000       225.0656      -999.2500        43.2000        14.0600        19.4090         0.0000      -999.2500        10.6100      -999.2500         2.3920        18.5780        18.5780        48.3000
    1589.22720       250.1900    -999.250000       0.100000       224.4094      -999.2500        43.2000        14.3550        19.9530         0.0000      -999.2500        10.6400      -999.2500         2.3920        19.9530        19.9530        47.3000
