~Version Information Block
VERS .                 2.00:  CWLS LOG ASCII STANDARD - VERSION 2.00
WRAP .                   NO:  One line per depth step
~Well Information Block
#MNEM.UNIT        Data Type   Information
#---------- ----------------  -----------
STRT .M          1048.05480:  START DEPTH
STOP .M          2676.90600:  STOP DEPTH
STEP .M             0.15240:  STEP
NULL .              -999.25:  NULL VALUE
COMP .                     :  COMPANY
WELL .            1-CA-3-PR:  WELL
FLD  .                     :  FIELD
LOC  .                     :  LOCATION
CTRY .                     :  COUNTRY
STAT .                     :  STATE
CNTY .                     :  COUNTY
SRVC .                     :  SERVICE COMPANY
DATE .                     :  DATE
API  .                     :  API NUMBER
UWI  .                     :  UNIQUE WELL ID
~Curve Information Block
#MNEM.UNIT         API CODE   Curve Description
#---------- ----------------  -----------------
DEPTH.M                    :  INDEX503
CALI .MM                   :  Caliper
DRHO .G/C3                 :  Density Correction
DRHO .G/C3                 :  Density Correction
DT   .US/M                 :  Sonic Transit Time (Slowness)
GR   .GAPI                 :  Gamma Ray
GR   .GAPI                 :  Gamma Ray
ILD  .OHMM                 :  Deep induction resistivity
ILM  .OHMM                 :  Medium induction resistivity
ITT  .                     :  Sonic Transit Time (Slowness)
NPHI .%                    :  Neutron Porosity
NPHI .%                    :  Neutron Porosity
RHOB .G/C3                 :  Bulk Density
RHOB .G/C3                 :  Bulk Density
RLAT .OHMM                 :  Laterolog 3 resistivity
RLN  .OHMM                 :  copy of Laterolog 3 resistivity (RLAT)
SP   .MV                   :  Spontaneous potential
~Parameter Information Block
#MNEM.UNIT            Value   Description
#---------- ----------------  -----------
BS1  .              17 1/2":  Bit size 1
BS2  .              12 1/4":  Bit size 2
BS3  .                81 2/:  Bit size 3
CS1  .              13 3/8":  Casing shoe 1 - Casing size
CS2  .               9 5/8":  Casing shoe 2 - Casing size
CS3  .               5 1/2":  Casing shoe 3 - Casing size
CUR_INT_BOT.M            2676.906:  
EDF  .M                 532:  Elevation of Drill Floor
EGL  .M               526.2:  Elevation of ground level
EKB  .M               532.3:  
QCCD .                 high:  Quality level of the Log data
QCCO .                     :  Company responsible for the Log quality control
QCDT .           1999/01/13:  Date of the Log quality control
QCRM .     carregado por Bucheb:  Comments on the Log quality
QCST .                final:  Status of the Log quality
TAPE_NAME.     1CA__0003__PR_1CA__0003__PR.dlis:  
PROJECT.             Mestrado:  
SET  .                 WIRE:  
~Other Information Block
REMARKS:
R1: VIDE DEMAIS ATRIBUTOS DE CABECALHO (LOG HEADER) NO FILE CORRESPONDENTE

R1: VIDE DEMAIS ATRIBUTOS DE CABECALHO (LOG HEADER) NO FILE CORRESPONDENTE

R1: VIDE DEMAIS ATRIBUTOS DE CABECALHO (LOG HEADER) NO FILE CORRESPONDENTE

TOOL_TABLE:
TOOL #0:
NAME:            FROM__DIL
DESCRIPTION:     OH WIRELINE
TRADEMARK-NAME:  FROM  DIL
GENERIC-NAME:    OH WIRELINE
STATUS:          TRUE
TOOL #0:
NAME:            FROM__BCS
DESCRIPTION:     OH WIRELINE
TRADEMARK-NAME:  FROM  BCS
GENERIC-NAME:    OH WIRELINE
STATUS:          TRUE
TOOL #0:
NAME:            FROM__CDN
DESCRIPTION:     OH WIRELINE
TRADEMARK-NAME:  FROM  CDN
GENERIC-NAME:    OH WIRELINE
STATUS:          TRUE
# 
~A       DEPTH           CALI           DRHO           DRHO             DT             GR             GR            ILD            ILM            ITT           NPHI           NPHI           RHOB           RHOB           RLAT            RLN             SP 
# ...
    2091.69000       330.2000    -999.250000       0.093000       218.1759      -999.2500        94.5000        18.4930        19.1430         0.0000      -999.2500        23.5200      -999.2500         2.2870        17.6600        17.6600        75.1000
    2091.84240       329.4380    -999.250000       0.058000       213.9108      -999.2500        86.4000        17.1790        18.3650         0.0000      -999.2500        21.2000      -999.2500         2.3670        20.9410        20.9410        76.2000
    2091.99480       329.9460    -999.250000       0.068000       217.5197      -999.2500        88.3000        18.9230        19.4090         0.0000      -999.2500        20.4800      -999.2500         2.4770        24.2100        24.2100        77.0000
    2092.14720       331.9780    -999.250000       0.112000       227.6903      -999.2500        96.1000        22.7510        22.9610         0.0000      -999.2500        19.8800      -999.2500         2.5410        27.1020        27.1020        77.8000
    2092.29960       334.2640    -999.250000       0.156000       233.5958      -999.2500       103.4000        24.6600        25.4100         0.0000      -999.2500        19.3400      -999.2500         2.5270        29.5800        29.5800        78.3000
    2092.45200       337.8200    -999.250000       0.172000       234.5800      -999.2500       108.7000        26.3030        26.7920         0.0000      -999.2500        19.0800      -999.2500         2.4700        31.1170        31.1170        78.5000
    2092.60440       339.3440    -999.250000       0.162000       231.6273      -999.2500       115.2000        30.0610        27.4160         0.0000      -999.2500        19.0200      -999.2500         2.4290        31.5500        31.5500        78.6000
    2092.75680       341.3760    -999.250000       0.148000       224.0814      -999.2500       122.8000        29.9920        26.9770         0.0000      -999.2500        18.8500      -999.2500         2.4370        31.4770        31.4770        79.2000
    2092.90920       343.1540    -999.250000       0.144000       220.8005      -999.2500       126.7000        25.5860        27.6690         0.0000      -999.2500        18.4500      -999.2500         2.4810        30.3390        30.3390        79.3000
    2093.06160       343.9160    -999.250000       0.151000       222.4409      -999.2500       123.8000        20.7010        25.8230         0.0000      -999.2500        18.0300      -999.2500         2.5220        27.0400        27.0400        79.1000
    2093.21400       342.9000    -999.250000       0.168000       224.4094      -999.2500       116.0000        15.5600        23.2810         0.0000      -999.2500        18.0900      -999.2500         2.5320        23.4420        23.4420        79.3000
    2093.36640       343.1540    -999.250000       0.192000       225.3937      -999.2500       109.6000        12.0230        19.6790         0.0000      -999.2500        18.7400      -999.2500         2.5080        20.2300        20.2300        79.5000
    2093.51880       343.9160    -999.250000       0.208000       225.7218      -999.2500       109.0000        11.3500        10.8640         0.0000      -999.2500        19.8300      -999.2500         2.4610        18.0720        18.0720        80.0000
    2093.67120       344.1700    -999.250000       0.202000       228.0184      -999.2500       112.1000        13.5210         6.6990         0.0000      -999.2500        21.0600      -999.2500         2.4210        17.7420        17.7420        80.1000
    2093.82360       343.4080    -999.250000       0.175000       231.2992      -999.2500       115.5000        29.5120         5.5340         0.0000      -999.2500        22.7900      -999.2500         2.4150        19.5880        19.5880        80.5000
    2093.97600       343.4080    -999.250000       0.154000       233.2677      -999.2500       117.0000    100000.0000         6.0670         0.0000      -999.2500        23.6300      -999.2500         2.4370        21.7270        21.7270        80.1000
    2094.12840       343.9160    -999.250000       0.160000       233.5958      -999.2500       117.4000    100000.0000         9.7050         0.0000      -999.2500        22.0800      -999.2500         2.4440        24.4340        24.4340        79.9000
    2094.28080       344.9320    -999.250000       0.182000       230.3150      -999.2500       116.9000    100000.0000       278.6121         0.0000      -999.2500        20.0900      -999.2500         2.4140        27.2270        27.2270        79.3000
    2094.43320       342.3920    -999.250000       0.193000       223.4252      -999.2500       114.3000    100000.0000    100000.0000         0.0000      -999.2500        18.3600      -999.2500         2.3820        28.7740        28.7740        79.3000
    2094.58560       337.0580    -999.250000       0.186000       218.1759      -999.2500       111.2000    100000.0000    100000.0000         0.0000      -999.2500        17.3300      -999.2500         2.4060        27.7330        27.7330        79.2000
    2094.73800       334.2640    -999.250000       0.178000       217.1916      -999.2500       109.2000        12.2740    100000.0000         0.0000      -999.2500        17.1600      -999.2500         2.4930        23.6050        23.6050        79.1000
    2094.89040       335.0260    -999.250000       0.173000       216.5354      -999.2500       109.1000         5.0350        11.6950         0.0000      -999.2500        17.6900      -999.2500         2.5830        18.9230        18.9230        78.6000
    2095.04280       335.0260    -999.250000       0.159000       213.2546      -999.2500       109.2000         4.7210         3.6730         1.0000      -999.2500        18.4100      -999.2500         2.6160        15.3460        15.3460        77.4000
    2095.19520       333.5020    -999.250000       0.132000       210.6299      -999.2500       107.0000         5.6890         3.4280         0.0000      -999.2500        18.3700      -999.2500         2.5910        14.2560        14.2560        76.4000
    2095.34760       336.0420    -999.250000       0.106000       207.3491      -999.2500        99.8000         5.9290         5.3700         0.0000      -999.2500        17.1600      -999.2500         2.5450        15.4880        15.4880        76.2000
    2095.50000       326.6440    -999.250000       0.097000       211.9423      -999.2500        89.3000         6.3830         8.8310         0.0000      -999.2500        16.2400      -999.2500         2.5050        18.5350        18.5350        76.2000
    2095.65240       323.8500    -999.250000       0.117000       233.9239      -999.2500        82.7000        10.0690         8.6300         0.0000      -999.2500        17.7100      -999.2500         2.4760        21.6770        21.6770        76.6000
    2095.80480       327.9140    -999.250000       0.154000       254.9212      -999.2500        84.7000        14.0930         8.8100         0.0000      -999.2500        21.1000      -999.2500         2.4430        23.9330        23.9330        77.4000
    2095.95720       337.8200    -999.250000       0.175000       257.8740      -999.2500        93.5000        19.7700        11.3760         0.0000      -999.2500        24.1400      -999.2500         2.4040        24.9460        24.9460        77.4000
    2096.10960       341.8840    -999.250000       0.161000       243.7664      -999.2500       103.3000        44.7710        27.7330         0.0000      -999.2500        22.3800      -999.2500         2.3850        25.8230        25.8230        77.8000
    2096.26200       331.2160    -999.250000       0.138000       225.7218      -999.2500       110.9000        32.0630       102.5650         0.0000      -999.2500        20.0900      -999.2500         2.4130        26.8530        26.8530        78.0000
    2096.41440       330.9620    -999.250000       0.139000       218.5040      -999.2500       115.0000        20.4640        44.5660         0.0000      -999.2500        18.6400      -999.2500         2.4370        28.1190        28.1190        77.8000
