~Version Information Block
VERS .                 2.00:  CWLS LOG ASCII STANDARD - VERSION 2.00
WRAP .                   NO:  One line per depth step
~Well Information Block
#MNEM.UNIT        Data Type   Information
#---------- ----------------  -----------
STRT .M          1048.05480:  START DEPTH
STOP .M          2676.90600:  STOP DEPTH
STEP .M             0.15240:  STEP
NULL .              -999.25:  NULL VALUE
COMP .                     :  COMPANY
WELL .            1-CA-3-PR:  WELL
FLD  .                     :  FIELD
LOC  .                     :  LOCATION
CTRY .                     :  COUNTRY
STAT .                     :  STATE
CNTY .                     :  COUNTY
SRVC .                     :  SERVICE COMPANY
DATE .                     :  DATE
API  .                     :  API NUMBER
UWI  .                     :  UNIQUE WELL ID
~Curve Information Block
#MNEM.UNIT         API CODE   Curve Description
#---------- ----------------  -----------------
DEPTH.M                    :  INDEX503
CALI .MM                   :  Caliper
DRHO .G/C3                 :  Density Correction
DRHO .G/C3                 :  Density Correction
DT   .US/M                 :  Sonic Transit Time (Slowness)
GR   .GAPI                 :  Gamma Ray
GR   .GAPI                 :  Gamma Ray
ILD  .OHMM                 :  Deep induction resistivity
ILM  .OHMM                 :  Medium induction resistivity
ITT  .                     :  Sonic Transit Time (Slowness)
NPHI .%                    :  Neutron Porosity
NPHI .%                    :  Neutron Porosity
RHOB .G/C3                 :  Bulk Density
RHOB .G/C3                 :  Bulk Density
RLAT .OHMM                 :  Laterolog 3 resistivity
RLN  .OHMM                 :  copy of Laterolog 3 resistivity (RLAT)
SP   .MV                   :  Spontaneous potential
~Parameter Information Block
#MNEM.UNIT            Value   Description
#---------- ----------------  -----------
BS1  .              17 1/2":  Bit size 1
BS2  .              12 1/4":  Bit size 2
BS3  .                81 2/:  Bit size 3
CS1  .              13 3/8":  Casing shoe 1 - Casing size
CS2  .               9 5/8":  Casing shoe 2 - Casing size
CS3  .               5 1/2":  Casing shoe 3 - Casing size
CUR_INT_BOT.M            2676.906:  
EDF  .M                 532:  Elevation of Drill Floor
EGL  .M               526.2:  Elevation of ground level
EKB  .M               532.3:  
QCCD .                 high:  Quality level of the Log data
QCCO .                     :  Company responsible for the Log quality control
QCDT .           1999/01/13:  Date of the Log quality control
QCRM .     carregado por Bucheb:  Comments on the Log quality
QCST .                final:  Status of the Log quality
TAPE_NAME.     1CA__0003__PR_1CA__0003__PR.dlis:  
PROJECT.             Mestrado:  
SET  .                 WIRE:  
~Other Information Block
REMARKS:
R1: VIDE DEMAIS ATRIBUTOS DE CABECALHO (LOG HEADER) NO FILE CORRESPONDENTE

R1: VIDE DEMAIS ATRIBUTOS DE CABECALHO (LOG HEADER) NO FILE CORRESPONDENTE

R1: VIDE DEMAIS ATRIBUTOS DE CABECALHO (LOG HEADER) NO FILE CORRESPONDENTE

TOOL_TABLE:
TOOL #0:
NAME:            FROM__DIL
DESCRIPTION:     OH WIRELINE
TRADEMARK-NAME:  FROM  DIL
GENERIC-NAME:    OH WIRELINE
STATUS:          TRUE
TOOL #0:
NAME:            FROM__BCS
DESCRIPTION:     OH WIRELINE
TRADEMARK-NAME:  FROM  BCS
GENERIC-NAME:    OH WIRELINE
STATUS:          TRUE
TOOL #0:
NAME:            FROM__CDN
DESCRIPTION:     OH WIRELINE
TRADEMARK-NAME:  FROM  CDN
GENERIC-NAME:    OH WIRELINE
STATUS:          TRUE
# 
~A       DEPTH           CALI           DRHO           DRHO             DT             GR             GR            ILD            ILM            ITT           NPHI           NPHI           RHOB           RHOB           RLAT            RLN             SP 
# ...
    1799.08200       232.9180    -999.250000       0.022000       218.8320      -999.2500        43.7000        18.7070        24.2100         0.0000      -999.2500         9.2900      -999.2500         2.4160        26.9770        26.9770        48.1000
    1799.23440       233.6800    -999.250000       0.028000       221.1286      -999.2500        45.3000        18.8800        23.9330         0.0000      -999.2500         9.3100      -999.2500         2.4280        27.2270        27.2270        48.5000
    1799.38680       233.6800    -999.250000       0.028000       224.7375      -999.2500        46.4000        18.9670        23.4420         0.0000      -999.2500         9.9600      -999.2500         2.4210        27.1020        27.1020        49.1000
    1799.53920       232.4100    -999.250000       0.024000       229.3307      -999.2500        46.3000        19.1870        23.4420         0.0000      -999.2500        10.8900      -999.2500         2.4050        25.0030        25.0030        49.7000
    1799.69160       232.4100    -999.250000       0.019000       232.2835      -999.2500        45.1000        19.2750        23.2810         0.0000      -999.2500        11.6000      -999.2500         2.3880        21.0380        21.0380        50.1000
    1799.84400       232.4100    -999.250000       0.015000       233.2677      -999.2500        43.8000        19.2750        22.5940         0.0000      -999.2500        11.7200      -999.2500         2.3750        19.7240        19.7240        50.1000
    1799.99640       231.9020    -999.250000       0.013000       232.9396      -999.2500        43.0000        19.5430        21.7770         0.0000      -999.2500        11.0900      -999.2500         2.3670        19.4980        19.4980        50.1000
    1800.14880       232.4100    -999.250000       0.012000       229.6588      -999.2500        42.2000        20.1370        21.7770         0.0000      -999.2500         9.9200      -999.2500         2.3680        20.9410        20.9410        50.2000
    1800.30120       232.4100    -999.250000       0.011000       224.4094      -999.2500        42.8000        20.7970        23.7140         0.0000      -999.2500         8.7900      -999.2500         2.3820        23.6050        23.6050        50.5000
    1800.45360       232.6640    -999.250000       0.010000       218.1759      -999.2500        44.5000        21.9790        25.8230         0.0000      -999.2500         7.8700      -999.2500         2.4040        24.7740        24.7740        50.8000
    1800.60600       233.9340    -999.250000       0.005000       209.6456      -999.2500        45.8000        23.8780        28.1190         0.0000      -999.2500         6.8100      -999.2500         2.4260        28.7740        28.7740        51.4000
    1800.75840       233.6800    -999.250000      -0.005000       201.7717      -999.2500        45.5000        26.3030        32.5090         0.0000      -999.2500         5.4100      -999.2500         2.4540        46.3450        46.3450        51.6000
    1800.91080       234.9500    -999.250000      -0.016000       194.8819      -999.2500        44.4000        29.3770        39.9940         0.0000      -999.2500         4.0300      -999.2500         2.4950        80.5380        80.5380        52.2000
    1801.06320       238.2520    -999.250000      -0.024000       189.6326      -999.2500        44.6000        32.5840        50.9330         0.0000      -999.2500         3.1800      -999.2500         2.5450       109.6480       109.6480        52.5000
    1801.21560       239.7760    -999.250000      -0.025000       187.6640      -999.2500        45.0000        35.4810        63.6800         0.0000      -999.2500         3.0200      -999.2500         2.5840       134.5860       134.5860        52.6000
    1801.36800       241.3000    -999.250000      -0.018000       188.9764      -999.2500        42.9000        36.9830        71.6140         0.0000      -999.2500         3.5300      -999.2500         2.5980       149.2790       149.2790        52.7000
    1801.52040       241.5540    -999.250000      -0.002000       192.2572      -999.2500        39.7000        37.1540        74.3020         0.0000      -999.2500         4.4900      -999.2500         2.5910       139.9590       139.9590        52.5000
    1801.67280       241.3000    -999.250000       0.020000       195.8661      -999.2500        39.3000        35.5630        68.0770         0.0000      -999.2500         5.6000      -999.2500         2.5720       109.3960       109.3960        52.2000
    1801.82520       239.7760    -999.250000       0.037000       200.7874      -999.2500        43.4000        32.5090        56.2340         0.0000      -999.2500         6.6700      -999.2500         2.5410        80.3530        80.3530        52.0000
    1801.97760       237.7440    -999.250000       0.042000       205.7086      -999.2500        49.0000        29.6480        47.2060         0.0000      -999.2500         7.6500      -999.2500         2.5010        55.9760        55.9760        51.8000
    1802.13000       237.2360    -999.250000       0.036000       210.3019      -999.2500        51.5000        26.8530        39.9940         0.0000      -999.2500         8.6200      -999.2500         2.4590        39.2640        39.2640        51.8000
    1802.28240       233.9340    -999.250000       0.027000       214.5669      -999.2500        50.3000        24.0990        34.3560         0.0000      -999.2500         9.4300      -999.2500         2.4250        32.2850        32.2850        52.0000
    1802.43480       233.6800    -999.250000       0.023000       218.5040      -999.2500        48.6000        22.3870        30.1300         1.0000      -999.2500        10.1100      -999.2500         2.4050        27.9250        27.9250        51.5000
    1802.58720       233.6800    -999.250000       0.024000       221.1286      -999.2500        49.8000        20.7010        27.0400         0.0000      -999.2500        10.5100      -999.2500         2.3960        26.1220        26.1220        51.4000
    1802.73960       233.6800    -999.250000       0.024000       222.7690      -999.2500        53.4000        19.6340        25.0610         0.0000      -999.2500        10.7000      -999.2500         2.3940        25.1770        25.1770        51.2000
    1802.89200       233.9340    -999.250000       0.020000       223.7533      -999.2500        55.7000        18.9230        23.8230         0.0000      -999.2500        10.7500      -999.2500         2.3930        24.4340        24.4340        51.2000
    1803.04440       233.9340    -999.250000       0.015000       224.7375      -999.2500        55.0000        18.5350        22.8560         0.0000      -999.2500        10.7500      -999.2500         2.3930        23.7140        23.7140        50.8000
    1803.19680       234.4420    -999.250000       0.014000       224.0814      -999.2500        53.8000        18.4930        22.4390         0.0000      -999.2500        10.7000      -999.2500         2.4000        23.0140        23.0140        50.7000
    1803.34920       234.9500    -999.250000       0.018000       222.4409      -999.2500        52.5000        18.6640        22.3360         0.0000      -999.2500        10.5200      -999.2500         2.4120        22.5940        22.5940        50.1000
    1803.50160       235.4580    -999.250000       0.021000       220.1444      -999.2500        50.0000        18.9670        22.6990         0.0000      -999.2500        10.3800      -999.2500         2.4210        22.8560        22.8560        50.5000
    1803.65400       236.4740    -999.250000       0.019000       216.8635      -999.2500        47.5000        19.5880        23.8230         0.0000      -999.2500        10.0400      -999.2500         2.4260        24.3780        24.3780        50.5000
    1803.80640       236.9820    -999.250000       0.015000       214.2389      -999.2500        48.2000        20.1370        25.4680         0.0000      -999.2500         9.1400      -999.2500         2.4330        27.2900        27.2900        50.7000
