~Version Information Block
VERS .                 2.00:  CWLS LOG ASCII STANDARD - VERSION 2.00
WRAP .                   NO:  One line per depth step
~Well Information Block
#MNEM.UNIT        Data Type   Information
#---------- ----------------  -----------
STRT .M          1048.05480:  START DEPTH
STOP .M          2676.90600:  STOP DEPTH
STEP .M             0.15240:  STEP
NULL .              -999.25:  NULL VALUE
COMP .                     :  COMPANY
WELL .            1-CA-3-PR:  WELL
FLD  .                     :  FIELD
LOC  .                     :  LOCATION
CTRY .                     :  COUNTRY
STAT .                     :  STATE
CNTY .                     :  COUNTY
SRVC .                     :  SERVICE COMPANY
DATE .                     :  DATE
API  .                     :  API NUMBER
UWI  .                     :  UNIQUE WELL ID
~Curve Information Block
#MNEM.UNIT         API CODE   Curve Description
#---------- ----------------  -----------------
DEPTH.M                    :  INDEX503
CALI .MM                   :  Caliper
DRHO .G/C3                 :  Density Correction
DRHO .G/C3                 :  Density Correction
DT   .US/M                 :  Sonic Transit Time (Slowness)
GR   .GAPI                 :  Gamma Ray
GR   .GAPI                 :  Gamma Ray
ILD  .OHMM                 :  Deep induction resistivity
ILM  .OHMM                 :  Medium induction resistivity
ITT  .                     :  Sonic Transit Time (Slowness)
NPHI .%                    :  Neutron Porosity
NPHI .%                    :  Neutron Porosity
RHOB .G/C3                 :  Bulk Density
RHOB .G/C3                 :  Bulk Density
RLAT .OHMM                 :  Laterolog 3 resistivity
RLN  .OHMM                 :  copy of Laterolog 3 resistivity (RLAT)
SP   .MV                   :  Spontaneous potential
~Parameter Information Block
#MNEM.UNIT            Value   Description
#---------- ----------------  -----------
BS1  .              17 1/2":  Bit size 1
BS2  .              12 1/4":  Bit size 2
BS3  .                81 2/:  Bit size 3
CS1  .              13 3/8":  Casing shoe 1 - Casing size
CS2  .               9 5/8":  Casing shoe 2 - Casing size
CS3  .               5 1/2":  Casing shoe 3 - Casing size
CUR_INT_BOT.M            2676.906:  
EDF  .M                 532:  Elevation of Drill Floor
EGL  .M               526.2:  Elevation of ground level
EKB  .M               532.3:  
QCCD .                 high:  Quality level of the Log data
QCCO .                     :  Company responsible for the Log quality control
QCDT .           1999/01/13:  Date of the Log quality control
QCRM .     carregado por Bucheb:  Comments on the Log quality
QCST .                final:  Status of the Log quality
TAPE_NAME.     1CA__0003__PR_1CA__0003__PR.dlis:  
PROJECT.             Mestrado:  
SET  .                 WIRE:  
~Other Information Block
REMARKS:
R1: VIDE DEMAIS ATRIBUTOS DE CABECALHO (LOG HEADER) NO FILE CORRESPONDENTE

R1: VIDE DEMAIS ATRIBUTOS DE CABECALHO (LOG HEADER) NO FILE CORRESPONDENTE

R1: VIDE DEMAIS ATRIBUTOS DE CABECALHO (LOG HEADER) NO FILE CORRESPONDENTE

TOOL_TABLE:
TOOL #0:
NAME:            FROM__DIL
DESCRIPTION:     OH WIRELINE
TRADEMARK-NAME:  FROM  DIL
GENERIC-NAME:    OH WIRELINE
STATUS:          TRUE
TOOL #0:
NAME:            FROM__BCS
DESCRIPTION:     OH WIRELINE
TRADEMARK-NAME:  FROM  BCS
GENERIC-NAME:    OH WIRELINE
STATUS:          TRUE
TOOL #0:
NAME:            FROM__CDN
DESCRIPTION:     OH WIRELINE
TRADEMARK-NAME:  FROM  CDN
GENERIC-NAME:    OH WIRELINE
STATUS:          TRUE
# 
~A       DEPTH           CALI           DRHO           DRHO             DT             GR             GR            ILD            ILM            ITT           NPHI           NPHI           RHOB           RHOB           RLAT            RLN             SP 
# ...
    2159.96520       262.3820    -999.250000       0.135000       254.2651      -999.2500       117.5000        16.7110        25.5270         1.0000      -999.2500        18.5300      -999.2500         2.5330        27.0400        27.0400        88.3000
    2160.11760       262.1280    -999.250000       0.158000       260.1706      -999.2500       117.2000       122.1800        59.7040         0.0000      -999.2500        20.2900      -999.2500         2.4800        26.6070        26.6070        89.7000
    2160.27000       282.1940    -999.250000       0.161000       260.4987      -999.2500       114.2000    100000.0000    100000.0000         0.0000      -999.2500        25.3900      -999.2500         2.4360        28.3790        28.3790        89.9000
    2160.42240       293.1160    -999.250000       0.173000       261.8110      -999.2500       111.7000         8.0540    100000.0000         0.0000      -999.2500        29.8800      -999.2500         2.3960        29.9230        29.9230        89.3000
    2160.57480       270.5100    -999.250000       0.191000       260.4987      -999.2500       112.8000         2.1430        10.2090         0.0000      -999.2500        30.5900      -999.2500         2.3660        29.7170        29.7170        88.1000
    2160.72720       277.3680    -999.250000       0.195000       251.3124      -999.2500       115.4000         0.8590         2.3500         0.0000      -999.2500        27.9100      -999.2500         2.3730        27.5420        27.5420        87.9000
    2160.87960       279.9080    -999.250000       0.184000       243.4383      -999.2500       117.1000         0.4520         0.9080         0.0000      -999.2500        24.3400      -999.2500         2.4330        22.9610        22.9610        88.3000
    2161.03200       275.0820    -999.250000       0.179000       239.8294      -999.2500       116.0000         0.2720         0.4390         0.0000      -999.2500        21.8300      -999.2500         2.5250        17.0220        17.0220        88.2000
    2161.18440       281.1780    -999.250000       0.184000       236.2205      -999.2500       116.1000         0.2310         0.2590         0.0000      -999.2500        21.8300      -999.2500         2.6050        11.0920        11.0920        87.9000
    2161.33680       290.3220    -999.250000       0.199000       231.9554      -999.2500       118.7000         0.2190         0.2500         0.0000      -999.2500        23.4100      -999.2500         2.6520         6.3100         6.3100        87.9000
    2161.48920       273.0500    -999.250000       0.227000       229.6588      -999.2500       119.4000         0.2120         0.2500         0.0000      -999.2500        24.8200      -999.2500         2.6610         3.6730         3.6730        88.3000
    2161.64160       265.1760    -999.250000       0.262000       230.3150      -999.2500       116.3000         0.2100         0.3250         0.0000      -999.2500        24.3100      -999.2500         2.6250         2.6790         2.6790        88.9000
    2161.79400       278.3840    -999.250000       0.284000       235.2362      -999.2500       112.1000         0.2320         0.3920         0.0000      -999.2500        21.7000      -999.2500         2.5620         3.5560         3.5560        88.9000
    2161.94640       283.7180    -999.250000       0.282000       242.7822      -999.2500       110.2000         0.3420         0.4890         0.0000      -999.2500        19.4700      -999.2500         2.4910         5.9570         5.9570        86.7000
    2162.09880       267.9700    -999.250000       0.270000       247.3753      -999.2500       108.2000         0.6470         0.7940         0.0000      -999.2500        18.9300      -999.2500         2.4240        10.6910        10.6910        84.6000
    2162.25120       274.8280    -999.250000       0.263000       248.0315      -999.2500       105.2000         1.3370         1.5380         0.0000      -999.2500        19.7600      -999.2500         2.3640        17.0610        17.0610        84.9000
    2162.40360       295.6560    -999.250000       0.261000       244.7507      -999.2500       103.7000         4.4460         3.7150         0.0000      -999.2500        20.8800      -999.2500         2.3180        24.0990        24.0990        83.8000
    2162.55600       289.0520    -999.250000       0.260000       236.5486      -999.2500       105.6000    100000.0000        63.2410         0.0000      -999.2500        21.9000      -999.2500         2.2930        30.5490        30.5490        84.0000
    2162.70840       278.6380    -999.250000       0.254000       231.6273      -999.2500       109.7000    100000.0000    100000.0000         0.0000      -999.2500        22.3900      -999.2500         2.2810        35.2370        35.2370        85.6000
    2162.86080       273.8120    -999.250000       0.242000       232.9396      -999.2500       111.7000    100000.0000    100000.0000         0.0000      -999.2500        22.6100      -999.2500         2.2810        36.4750        36.4750        90.7000
    2163.01320       274.8280    -999.250000       0.227000       233.9239      -999.2500       110.6000    100000.0000    100000.0000         0.0000      -999.2500        22.9000      -999.2500         2.3010        35.4000        35.4000        91.1000
    2163.16560       268.2240    -999.250000       0.214000       233.5958      -999.2500       107.4000    100000.0000    100000.0000         0.0000      -999.2500        24.3300      -999.2500         2.3430        33.1890        33.1890        87.4000
    2163.31800       278.3840    -999.250000       0.196000       236.8766      -999.2500       104.9000         2.6670    100000.0000         0.0000      -999.2500        27.0000      -999.2500         2.3930        29.3090        29.3090        87.7000
    2163.47040       279.9080    -999.250000       0.180000       242.1260      -999.2500       104.1000         0.4730         1.0810         0.0000      -999.2500        29.7700      -999.2500         2.4360        23.8780        23.8780        88.1000
    2163.62280       287.0200    -999.250000       0.185000       242.1260      -999.2500       104.6000         0.1570         0.3450         0.0000      -999.2500        30.6400      -999.2500         2.4680        17.8650        17.8650        89.1000
    2163.77520       287.7820    -999.250000       0.208000       240.1575      -999.2500       105.7000         0.1570         0.2500         0.0000      -999.2500        29.4400      -999.2500         2.4780        11.9400        11.9400        87.4000
    2163.92760       287.0200    -999.250000       0.224000       239.1732      -999.2500       105.2000         0.1570         0.2500         0.0000      -999.2500        26.7700      -999.2500         2.4760         7.0310         7.0310        85.4000
    2164.08000       279.4000    -999.250000       0.225000       239.5013      -999.2500       102.9000         0.1570         0.2500         1.0000      -999.2500        24.6800      -999.2500         2.4960         3.8730         3.8730        84.7000
    2164.23240       267.4620    -999.250000       0.224000       242.7822      -999.2500       100.9000         0.1570         0.2500         0.0000      -999.2500        24.0900      -999.2500         2.5480         2.8770         2.8770        85.0000
    2164.38480       268.4780    -999.250000       0.233000       245.7349      -999.2500       101.1000         0.1570         0.2500         0.0000      -999.2500        24.1900      -999.2500         2.5780         4.6560         4.6560        86.0000
    2164.53720       271.5260    -999.250000       0.246000       246.3911      -999.2500       103.2000         0.1570         0.2500         0.0000      -999.2500        23.5700      -999.2500         2.5420         7.4300         7.4300        88.8000
    2164.68960       281.6860    -999.250000       0.259000       245.4068      -999.2500       106.9000         0.1570         0.2500         0.0000      -999.2500        22.0500      -999.2500         2.4720         9.1200         9.1200        91.1000
