~Version Information Block
VERS .                 2.00:  CWLS LOG ASCII STANDARD - VERSION 2.00
WRAP .                   NO:  One line per depth step
~Well Information Block
#MNEM.UNIT        Data Type   Information
#---------- ----------------  -----------
STRT .M          1048.05480:  START DEPTH
STOP .M          2676.90600:  STOP DEPTH
STEP .M             0.15240:  STEP
NULL .              -999.25:  NULL VALUE
COMP .                     :  COMPANY
WELL .            1-CA-3-PR:  WELL
FLD  .                     :  FIELD
LOC  .                     :  LOCATION
CTRY .                     :  COUNTRY
STAT .                     :  STATE
CNTY .                     :  COUNTY
SRVC .                     :  SERVICE COMPANY
DATE .                     :  DATE
API  .                     :  API NUMBER
UWI  .                     :  UNIQUE WELL ID
~Curve Information Block
#MNEM.UNIT         API CODE   Curve Description
#---------- ----------------  -----------------
DEPTH.M                    :  INDEX503
CALI .MM                   :  Caliper
DRHO .G/C3                 :  Density Correction
DRHO .G/C3                 :  Density Correction
DT   .US/M                 :  Sonic Transit Time (Slowness)
GR   .GAPI                 :  Gamma Ray
GR   .GAPI                 :  Gamma Ray
ILD  .OHMM                 :  Deep induction resistivity
ILM  .OHMM                 :  Medium induction resistivity
ITT  .                     :  Sonic Transit Time (Slowness)
NPHI .%                    :  Neutron Porosity
NPHI .%                    :  Neutron Porosity
RHOB .G/C3                 :  Bulk Density
RHOB .G/C3                 :  Bulk Density
RLAT .OHMM                 :  Laterolog 3 resistivity
RLN  .OHMM                 :  copy of Laterolog 3 resistivity (RLAT)
SP   .MV                   :  Spontaneous potential
~Parameter Information Block
#MNEM.UNIT            Value   Description
#---------- ----------------  -----------
BS1  .              17 1/2":  Bit size 1
BS2  .              12 1/4":  Bit size 2
BS3  .                81 2/:  Bit size 3
CS1  .              13 3/8":  Casing shoe 1 - Casing size
CS2  .               9 5/8":  Casing shoe 2 - Casing size
CS3  .               5 1/2":  Casing shoe 3 - Casing size
CUR_INT_BOT.M            2676.906:  
EDF  .M                 532:  Elevation of Drill Floor
EGL  .M               526.2:  Elevation of ground level
EKB  .M               532.3:  
QCCD .                 high:  Quality level of the Log data
QCCO .                     :  Company responsible for the Log quality control
QCDT .           1999/01/13:  Date of the Log quality control
QCRM .     carregado por Bucheb:  Comments on the Log quality
QCST .                final:  Status of the Log quality
TAPE_NAME.     1CA__0003__PR_1CA__0003__PR.dlis:  
PROJECT.             Mestrado:  
SET  .                 WIRE:  
~Other Information Block
REMARKS:
R1: VIDE DEMAIS ATRIBUTOS DE CABECALHO (LOG HEADER) NO FILE CORRESPONDENTE

R1: VIDE DEMAIS ATRIBUTOS DE CABECALHO (LOG HEADER) NO FILE CORRESPONDENTE

R1: VIDE DEMAIS ATRIBUTOS DE CABECALHO (LOG HEADER) NO FILE CORRESPONDENTE

TOOL_TABLE:
TOOL #0:
NAME:            FROM__DIL
DESCRIPTION:     OH WIRELINE
TRADEMARK-NAME:  FROM  DIL
GENERIC-NAME:    OH WIRELINE
STATUS:          TRUE
TOOL #0:
NAME:            FROM__BCS
DESCRIPTION:     OH WIRELINE
TRADEMARK-NAME:  FROM  BCS
GENERIC-NAME:    OH WIRELINE
STATUS:          TRUE
TOOL #0:
NAME:            FROM__CDN
DESCRIPTION:     OH WIRELINE
TRADEMARK-NAME:  FROM  CDN
GENERIC-NAME:    OH WIRELINE
STATUS:          TRUE
# 
~A       DEPTH           CALI           DRHO           DRHO             DT             GR             GR            ILD            ILM            ITT           NPHI           NPHI           RHOB           RHOB           RLAT            RLN             SP 
# ...
    1945.38600       263.3980    -999.250000      -0.047000       216.5354      -999.2500       120.6000        24.7170        34.3560         0.0000      -999.2500        18.8200      -999.2500         2.7200       187.0680       187.0680        78.8000
    1945.53840       263.3980    -999.250000      -0.044000       216.5354      -999.2500       119.2000        27.6060        54.9540         0.0000      -999.2500        19.3200      -999.2500         2.7270       200.9090       200.9090        78.4000
    1945.69080       263.3980    -999.250000      -0.042000       216.5354      -999.2500       120.0000        32.5090        74.9890         0.0000      -999.2500        19.7600      -999.2500         2.7290       207.0140       207.0140        78.3000
    1945.84320       263.3980    -999.250000      -0.037000       215.8793      -999.2500       121.2000        32.8100       216.7700         0.0000      -999.2500        19.8500      -999.2500         2.7280       201.8360       201.8360        78.4000
    1945.99560       263.3980    -999.250000      -0.028000       213.5827      -999.2500       123.4000        29.8540    100000.0000         0.0000      -999.2500        19.5000      -999.2500         2.7270       188.3650       188.3650        78.4000
    1946.14800       263.3980    -999.250000      -0.018000       210.9580      -999.2500       127.5000        31.4770        61.9440         0.0000      -999.2500        18.8200      -999.2500         2.7280       170.6080       170.6080        78.2000
    1946.30040       263.3980    -999.250000      -0.016000       208.9895      -999.2500       131.2000        31.0460        37.2390         0.0000      -999.2500        18.0300      -999.2500         2.7280       166.7250       166.7250        78.1000
    1946.45280       263.3980    -999.250000      -0.021000       207.3491      -999.2500       130.6000        28.7740        64.4170         0.0000      -999.2500        17.3300      -999.2500         2.7260       166.3410       166.3410        77.6000
    1946.60520       263.6520    -999.250000      -0.028000       206.6929      -999.2500       124.6000        25.4100       118.8500         0.0000      -999.2500        16.7700      -999.2500         2.7220       168.2670       168.2670        77.4000
    1946.75760       263.9060    -999.250000      -0.031000       206.6929      -999.2500       118.4000        20.8450        61.9440         0.0000      -999.2500        16.2400      -999.2500         2.7170       177.8280       177.8280        77.4000
    1946.91000       263.9060    -999.250000      -0.030000       206.6929      -999.2500       116.3000        25.2930        26.6690         3.0000      -999.2500        15.7100      -999.2500         2.7140       189.6710       189.6710        77.7000
    1947.06240       264.4140    -999.250000      -0.030000       207.3491      -999.2500       117.9000        35.8920        14.8940         0.0000      -999.2500        15.4800      -999.2500         2.7100       184.9270       184.9270        77.6000
    1947.21480       264.4140    -999.250000      -0.033000       207.6772      -999.2500       119.5000        43.1520        16.4440         0.0000      -999.2500        15.8400      -999.2500         2.7070       172.1870       172.1870        77.4000
    1947.36720       264.4140    -999.250000      -0.038000       208.0052      -999.2500       118.6000       146.2180        27.2900         0.0000      -999.2500        16.6300      -999.2500         2.7090       143.2190       143.2190        77.4000
    1947.51960       264.4140    -999.250000      -0.044000       207.3491      -999.2500       115.7000    100000.0000       121.8990         0.0000      -999.2500        17.4000      -999.2500         2.7180       107.6470       107.6470        77.8000
    1947.67200       264.4140    -999.250000      -0.048000       205.3806      -999.2500       114.4000        10.9650    100000.0000         0.0000      -999.2500        17.9300      -999.2500         2.7350        72.2770        72.2770        78.6000
    1947.82440       264.4140    -999.250000      -0.045000       202.7559      -999.2500       115.6000         4.1300    100000.0000         0.0000      -999.2500        18.4000      -999.2500         2.7540        41.5910        41.5910        79.3000
    1947.97680       265.1760    -999.250000      -0.033000       200.7874      -999.2500       114.7000         4.2660         3.8550         0.0000      -999.2500        18.4300      -999.2500         2.7630        39.3550        39.3550        79.7000
    1948.12920       264.9220    -999.250000      -0.017000       200.7874      -999.2500       110.3000         5.9430         8.9330         0.0000      -999.2500        17.5500      -999.2500         2.7570        61.6590        61.6590        79.6000
    1948.28160       264.9220    -999.250000      -0.010000       203.7402      -999.2500       106.0000       139.9590    100000.0000         0.0000      -999.2500        16.1700      -999.2500         2.7390        85.9010        85.9010        79.4000
    1948.43400       265.1760    -999.250000      -0.016000       208.3333      -999.2500       105.3000    100000.0000    100000.0000         0.0000      -999.2500        15.6800      -999.2500         2.7260       108.6430       108.6430        79.5000
    1948.58640       264.9220    -999.250000      -0.024000       213.2546      -999.2500       108.9000    100000.0000    100000.0000         0.0000      -999.2500        16.6700      -999.2500         2.7240       122.7440       122.7440        80.1000
    1948.73880       265.1760    -999.250000      -0.029000       217.1916      -999.2500       114.5000    100000.0000    100000.0000         0.0000      -999.2500        18.3200      -999.2500         2.7300       121.3390       121.3390        80.3000
    1948.89120       264.1600    -999.250000      -0.033000       220.4724      -999.2500       120.9000    100000.0000    100000.0000         0.0000      -999.2500        19.4700      -999.2500         2.7350       118.0320       118.0320        80.0000
    1949.04360       264.4140    -999.250000      -0.037000       222.7690      -999.2500       125.9000       365.5950       211.8360         0.0000      -999.2500        20.1100      -999.2500         2.7340       115.0800       115.0800        79.3000
    1949.19600       264.1600    -999.250000      -0.039000       223.7533      -999.2500       127.2000         6.0120         9.4840         0.0000      -999.2500        21.2700      -999.2500         2.7300       106.9050       106.9050        78.8000
    1949.34840       263.1440    -999.250000      -0.038000       223.0971      -999.2500       125.7000         2.6980         2.7040         0.0000      -999.2500        22.6800      -999.2500         2.7290        88.5120        88.5120        79.3000
    1949.50080       263.1440    -999.250000      -0.036000       221.4567      -999.2500       123.2000         1.8200         1.2020         0.0000      -999.2500        23.2800      -999.2500         2.7370        67.9200        67.9200        80.2000
    1949.65320       262.6360    -999.250000      -0.033000       219.4882      -999.2500       123.6000         1.6520         0.6750         0.0000      -999.2500        22.6900      -999.2500         2.7470        47.0980        47.0980        80.9000
    1949.80560       262.1280    -999.250000      -0.032000       216.8635      -999.2500       128.4000         1.9450         0.4800         0.0000      -999.2500        20.5300      -999.2500         2.7490        29.9230        29.9230        81.3000
    1949.95800       261.3660    -999.250000      -0.031000       213.5827      -999.2500       133.0000         1.5740         0.5040         0.0000      -999.2500        18.6800      -999.2500         2.7390        24.7740        24.7740        80.5000
    1950.11040       259.0800    -999.250000      -0.031000       211.6142      -999.2500       131.5000         0.8340         0.6400         0.0000      -999.2500        16.9700      -999.2500         2.7220        29.9230        29.9230        79.3000
