~Version Information Block
VERS .                 2.00:  CWLS LOG ASCII STANDARD - VERSION 2.00
WRAP .                   NO:  One line per depth step
~Well Information Block
#MNEM.UNIT        Data Type   Information
#---------- ----------------  -----------
STRT .M          1048.05480:  START DEPTH
STOP .M          2676.90600:  STOP DEPTH
STEP .M             0.15240:  STEP
NULL .              -999.25:  NULL VALUE
COMP .                     :  COMPANY
WELL .            1-CA-3-PR:  WELL
FLD  .                     :  FIELD
LOC  .                     :  LOCATION
CTRY .                     :  COUNTRY
STAT .                     :  STATE
CNTY .                     :  COUNTY
SRVC .                     :  SERVICE COMPANY
DATE .                     :  DATE
API  .                     :  API NUMBER
UWI  .                     :  UNIQUE WELL ID
~Curve Information Block
#MNEM.UNIT         API CODE   Curve Description
#---------- ----------------  -----------------
DEPTH.M                    :  INDEX503
CALI .MM                   :  Caliper
DRHO .G/C3                 :  Density Correction
DRHO .G/C3                 :  Density Correction
DT   .US/M                 :  Sonic Transit Time (Slowness)
GR   .GAPI                 :  Gamma Ray
GR   .GAPI                 :  Gamma Ray
ILD  .OHMM                 :  Deep induction resistivity
ILM  .OHMM                 :  Medium induction resistivity
ITT  .                     :  Sonic Transit Time (Slowness)
NPHI .%                    :  Neutron Porosity
NPHI .%                    :  Neutron Porosity
RHOB .G/C3                 :  Bulk Density
RHOB .G/C3                 :  Bulk Density
RLAT .OHMM                 :  Laterolog 3 resistivity
RLN  .OHMM                 :  copy of Laterolog 3 resistivity (RLAT)
SP   .MV                   :  Spontaneous potential
~Parameter Information Block
#MNEM.UNIT            Value   Description
#---------- ----------------  -----------
BS1  .              17 1/2":  Bit size 1
BS2  .              12 1/4":  Bit size 2
BS3  .                81 2/:  Bit size 3
CS1  .              13 3/8":  Casing shoe 1 - Casing size
CS2  .               9 5/8":  Casing shoe 2 - Casing size
CS3  .               5 1/2":  Casing shoe 3 - Casing size
CUR_INT_BOT.M            2676.906:  
EDF  .M                 532:  Elevation of Drill Floor
EGL  .M               526.2:  Elevation of ground level
EKB  .M               532.3:  
QCCD .                 high:  Quality level of the Log data
QCCO .                     :  Company responsible for the Log quality control
QCDT .           1999/01/13:  Date of the Log quality control
QCRM .     carregado por Bucheb:  Comments on the Log quality
QCST .                final:  Status of the Log quality
TAPE_NAME.     1CA__0003__PR_1CA__0003__PR.dlis:  
PROJECT.             Mestrado:  
SET  .                 WIRE:  
~Other Information Block
REMARKS:
R1: VIDE DEMAIS ATRIBUTOS DE CABECALHO (LOG HEADER) NO FILE CORRESPONDENTE

R1: VIDE DEMAIS ATRIBUTOS DE CABECALHO (LOG HEADER) NO FILE CORRESPONDENTE

R1: VIDE DEMAIS ATRIBUTOS DE CABECALHO (LOG HEADER) NO FILE CORRESPONDENTE

TOOL_TABLE:
TOOL #0:
NAME:            FROM__DIL
DESCRIPTION:     OH WIRELINE
TRADEMARK-NAME:  FROM  DIL
GENERIC-NAME:    OH WIRELINE
STATUS:          TRUE
TOOL #0:
NAME:            FROM__BCS
DESCRIPTION:     OH WIRELINE
TRADEMARK-NAME:  FROM  BCS
GENERIC-NAME:    OH WIRELINE
STATUS:          TRUE
TOOL #0:
NAME:            FROM__CDN
DESCRIPTION:     OH WIRELINE
TRADEMARK-NAME:  FROM  CDN
GENERIC-NAME:    OH WIRELINE
STATUS:          TRUE
# 
~A       DEPTH           CALI           DRHO           DRHO             DT             GR             GR            ILD            ILM            ITT           NPHI           NPHI           RHOB           RHOB           RLAT            RLN             SP 
# ...
    2306.26920       395.7320    -999.250000       0.080000       269.0289      -999.2500        94.7000        24.9460        17.9470         0.0000      -999.2500        39.3300      -999.2500         1.7690        19.2750        19.2750        82.6000
    2306.42160       393.7000    -999.250000       0.086000       262.4672      -999.2500        95.8000        28.7740        25.3510         0.0000      -999.2500        39.2100      -999.2500         1.8510        19.9990        19.9990        82.1000
    2306.57400       395.2240    -999.250000       0.058000       249.0157      -999.2500        91.7000        28.9070        46.1320         0.0000      -999.2500        37.2500      -999.2500         1.8940        20.7490        20.7490        81.8000
    2306.72640       395.2240    -999.250000       0.039000       243.7664      -999.2500        86.2000        28.7740        50.6990         0.0000      -999.2500        34.8300      -999.2500         1.9920        21.4780        21.4780        81.9000
    2306.87880       394.2080    -999.250000       0.073000       243.4383      -999.2500        85.3000        29.1070        34.1980         0.0000      -999.2500        32.8800      -999.2500         2.1900        22.0800        22.0800        82.3000
    2307.03120       395.2240    -999.250000       0.136000       242.1260      -999.2500        90.4000        27.7970        26.0620         0.0000      -999.2500        30.8300      -999.2500         2.3910        22.9090        22.9090        82.7000
    2307.18360       393.7000    -999.250000       0.175000       243.7664      -999.2500        97.2000        27.7330        22.8030         0.0000      -999.2500        27.9200      -999.2500         2.4950        23.7680        23.7680        83.0000
    2307.33600       394.9700    -999.250000       0.178000       249.0157      -999.2500       102.6000        29.3090        21.9280         0.0000      -999.2500        25.3800      -999.2500         2.5280        24.9460        24.9460        83.3000
    2307.48840       379.4760    -999.250000       0.160000       250.6561      -999.2500       106.0000        29.5800        26.6690         0.0000      -999.2500        25.3400      -999.2500         2.5450        26.6070        26.6070        83.4000
    2307.64080       389.3820    -999.250000       0.135000       248.3596      -999.2500       107.1000        27.7330        39.0840         0.0000      -999.2500        27.3900      -999.2500         2.5660        29.5120        29.5120        83.3000
    2307.79320       370.0780    -999.250000       0.117000       247.3753      -999.2500       105.3000        25.7630        55.9760         1.0000      -999.2500        28.6400      -999.2500         2.5940        33.2660        33.2660        82.7000
    2307.94560       344.9320    -999.250000       0.109000       245.4068      -999.2500       101.2000        23.1210        70.6320         0.0000      -999.2500        26.7600      -999.2500         2.6220        37.4110        37.4110        82.1000
    2308.09800       345.6940    -999.250000       0.100000       237.5328      -999.2500        98.1000        21.5280        72.6110         0.0000      -999.2500        23.1700      -999.2500         2.6380        41.4950        41.4950        81.5000
    2308.25040       327.1520    -999.250000       0.077000       227.6903      -999.2500        96.7000        22.1310        57.5440         0.0000      -999.2500        20.5900      -999.2500         2.6420        45.0820        45.0820        80.9000
    2308.40280       300.9900    -999.250000       0.049000       223.0971      -999.2500        94.3000        25.2930        49.6590         0.0000      -999.2500        19.0900      -999.2500         2.6480        47.8630        47.8630        79.7000
    2308.55520       300.7360    -999.250000       0.033000       222.7690      -999.2500        91.9000        36.8130        54.9540         0.0000      -999.2500        18.5100      -999.2500         2.6630        50.1190        50.1190        79.3000
    2308.70760       292.6080    -999.250000       0.033000       222.7690      -999.2500        93.5000    100000.0000        85.5070         0.0000      -999.2500        17.8100      -999.2500         2.6820        51.8800        51.8800        78.8000
    2308.86000       292.3540    -999.250000       0.041000       222.7690      -999.2500        98.9000    100000.0000      4864.0742         0.0000      -999.2500        17.2300      -999.2500         2.6990        53.5800        53.5800        78.6000
    2309.01240       284.9880    -999.250000       0.048000       223.0971      -999.2500       102.4000    100000.0000    100000.0000         0.0000      -999.2500        17.3800      -999.2500         2.7070        55.3350        55.3350        78.6000
    2309.16480       279.4000    -999.250000       0.046000       222.1129      -999.2500       102.1000    100000.0000    100000.0000         0.0000      -999.2500        17.3100      -999.2500         2.7020        56.4940        56.4940        80.7000
    2309.31720       280.9240    -999.250000       0.029000       219.1601      -999.2500       102.1000    100000.0000    100000.0000         0.0000      -999.2500        16.9800      -999.2500         2.6860        55.8470        55.8470        80.9000
    2309.46960       279.4000    -999.250000       0.004000       216.2073      -999.2500       104.6000    100000.0000    100000.0000         0.0000      -999.2500        16.4000      -999.2500         2.6690        52.6020        52.6020        78.0000
    2309.62200       268.9860    -999.250000      -0.010000       215.2231      -999.2500       106.5000    100000.0000    100000.0000         0.0000      -999.2500        16.1900      -999.2500         2.6620        45.7090        45.7090        75.8000
    2309.77440       265.9380    -999.250000       0.002000       216.5354      -999.2500       105.2000         2.8250         1.8410         0.0000      -999.2500        16.6000      -999.2500         2.6720        35.8920        35.8920        77.1000
    2309.92680       257.3020    -999.250000       0.028000       217.5197      -999.2500       104.0000         0.5570         0.6140         0.0000      -999.2500        17.2900      -999.2500         2.6950        24.7740        24.7740        80.3000
    2310.07920       265.4300    -999.250000       0.045000       218.8320      -999.2500       103.5000         0.2540         0.4130         0.0000      -999.2500        17.9000      -999.2500         2.7190        14.8250        14.8250        79.5000
    2310.23160       257.3020    -999.250000       0.048000       219.4882      -999.2500       100.8000         0.2840         0.3020         0.0000      -999.2500        18.4700      -999.2500         2.7350         7.3110         7.3110        77.0000
    2310.38400       256.5400    -999.250000       0.052000       218.5040      -999.2500        94.3000         0.2960         0.3320         0.0000      -999.2500        18.6600      -999.2500         2.7440         3.4360         3.4360        76.6000
    2310.53640       252.4760    -999.250000       0.070000       213.9108      -999.2500        85.3000         0.2580         0.5810         0.0000      -999.2500        18.6700      -999.2500         2.7500         3.0200         3.0200        78.0000
    2310.68880       245.8720    -999.250000       0.090000       206.6929      -999.2500        77.1000         0.3360    100000.0000         0.0000      -999.2500        18.4200      -999.2500         2.7540         3.5730         3.5730        78.8000
    2310.84120       245.3640    -999.250000       0.102000       199.1470      -999.2500        71.5000         0.3620    100000.0000         0.0000      -999.2500        18.8500      -999.2500         2.7610         4.0360         4.0360        80.3000
    2310.99360       233.6800    -999.250000       0.116000       196.8504      -999.2500        71.8000         0.4290         6.0670         0.0000      -999.2500        19.6400      -999.2500         2.7700         5.7150         5.7150        81.9000
