~Version Information Block
VERS .                 2.00:  CWLS LOG ASCII STANDARD - VERSION 2.00
WRAP .                   NO:  One line per depth step
~Well Information Block
#MNEM.UNIT        Data Type   Information
#---------- ----------------  -----------
STRT .M          1048.05480:  START DEPTH
STOP .M          2676.90600:  STOP DEPTH
STEP .M             0.15240:  STEP
NULL .              -999.25:  NULL VALUE
COMP .                     :  COMPANY
WELL .            1-CA-3-PR:  WELL
FLD  .                     :  FIELD
LOC  .                     :  LOCATION
CTRY .                     :  COUNTRY
STAT .                     :  STATE
CNTY .                     :  COUNTY
SRVC .                     :  SERVICE COMPANY
DATE .                     :  DATE
API  .                     :  API NUMBER
UWI  .                     :  UNIQUE WELL ID
~Curve Information Block
#MNEM.UNIT         API CODE   Curve Description
#---------- ----------------  -----------------
DEPTH.M                    :  INDEX503
CALI .MM                   :  Caliper
DRHO .G/C3                 :  Density Correction
DRHO .G/C3                 :  Density Correction
DT   .US/M                 :  Sonic Transit Time (Slowness)
GR   .GAPI                 :  Gamma Ray
GR   .GAPI                 :  Gamma Ray
ILD  .OHMM                 :  Deep induction resistivity
ILM  .OHMM                 :  Medium induction resistivity
ITT  .                     :  Sonic Transit Time (Slowness)
NPHI .%                    :  Neutron Porosity
NPHI .%                    :  Neutron Porosity
RHOB .G/C3                 :  Bulk Density
RHOB .G/C3                 :  Bulk Density
RLAT .OHMM                 :  Laterolog 3 resistivity
RLN  .OHMM                 :  copy of Laterolog 3 resistivity (RLAT)
SP   .MV                   :  Spontaneous potential
~Parameter Information Block
#MNEM.UNIT            Value   Description
#---------- ----------------  -----------
BS1  .              17 1/2":  Bit size 1
BS2  .              12 1/4":  Bit size 2
BS3  .                81 2/:  Bit size 3
CS1  .              13 3/8":  Casing shoe 1 - Casing size
CS2  .               9 5/8":  Casing shoe 2 - Casing size
CS3  .               5 1/2":  Casing shoe 3 - Casing size
CUR_INT_BOT.M            2676.906:  
EDF  .M                 532:  Elevation of Drill Floor
EGL  .M               526.2:  Elevation of ground level
EKB  .M               532.3:  
QCCD .                 high:  Quality level of the Log data
QCCO .                     :  Company responsible for the Log quality control
QCDT .           1999/01/13:  Date of the Log quality control
QCRM .     carregado por Bucheb:  Comments on the Log quality
QCST .                final:  Status of the Log quality
TAPE_NAME.     1CA__0003__PR_1CA__0003__PR.dlis:  
PROJECT.             Mestrado:  
SET  .                 WIRE:  
~Other Information Block
REMARKS:
R1: VIDE DEMAIS ATRIBUTOS DE CABECALHO (LOG HEADER) NO FILE CORRESPONDENTE

R1: VIDE DEMAIS ATRIBUTOS DE CABECALHO (LOG HEADER) NO FILE CORRESPONDENTE

R1: VIDE DEMAIS ATRIBUTOS DE CABECALHO (LOG HEADER) NO FILE CORRESPONDENTE

TOOL_TABLE:
TOOL #0:
NAME:            FROM__DIL
DESCRIPTION:     OH WIRELINE
TRADEMARK-NAME:  FROM  DIL
GENERIC-NAME:    OH WIRELINE
STATUS:          TRUE
TOOL #0:
NAME:            FROM__BCS
DESCRIPTION:     OH WIRELINE
TRADEMARK-NAME:  FROM  BCS
GENERIC-NAME:    OH WIRELINE
STATUS:          TRUE
TOOL #0:
NAME:            FROM__CDN
DESCRIPTION:     OH WIRELINE
TRADEMARK-NAME:  FROM  CDN
GENERIC-NAME:    OH WIRELINE
STATUS:          TRUE
# 
~A       DEPTH           CALI           DRHO           DRHO             DT             GR             GR            ILD            ILM            ITT           NPHI           NPHI           RHOB           RHOB           RLAT            RLN             SP 
# ...
    1657.65480       255.5240    -999.250000      -0.003000       197.1785      -999.2500        34.8000       112.4600       109.3960         0.0000      -999.2500         8.4900      -999.2500         2.5550       111.1730       111.1730        64.9000
    1657.80720       255.5240    -999.250000      -0.013000       193.5695      -999.2500        33.3000       123.8800       135.5190         1.0000      -999.2500         7.9700      -999.2500         2.5560       110.4080       110.4080        66.1000
    1657.95960       255.2700    -999.250000      -0.027000       188.9764      -999.2500        33.1000       130.6170       162.5550         0.0000      -999.2500         7.4600      -999.2500         2.5600       130.6170       130.6170        65.7000
    1658.11200       254.7620    -999.250000      -0.040000       185.0394      -999.2500        33.2000       132.4340       187.4990         0.0000      -999.2500         7.0100      -999.2500         2.5650       162.1810       162.1810        65.1000
    1658.26440       254.7620    -999.250000      -0.048000       182.7428      -999.2500        32.0000       136.1440       207.4910         0.0000      -999.2500         6.6800      -999.2500         2.5710       203.7040       203.7040        65.6000
    1658.41680       254.2540    -999.250000      -0.050000       183.0709      -999.2500        31.1000       128.8250       203.2350         0.0000      -999.2500         6.6500      -999.2500         2.5790       249.4590       249.4590        64.9000
    1658.56920       254.2540    -999.250000      -0.046000       186.3517      -999.2500        33.1000       117.7610       177.4190         0.0000      -999.2500         7.0500      -999.2500         2.5840       254.0970       254.0970        65.7000
    1658.72160       254.2540    -999.250000      -0.040000       190.2887      -999.2500        36.4000       111.1730       125.0260         0.0000      -999.2500         7.7400      -999.2500         2.5790       236.0480       236.0480        66.8000
    1658.87400       254.2540    -999.250000      -0.034000       193.2415      -999.2500        37.2000        98.6280        93.7560         0.0000      -999.2500         8.5800      -999.2500         2.5660       207.9700       207.9700        67.3000
    1659.02640       254.2540    -999.250000      -0.032000       195.5381      -999.2500        37.9000        86.8960        77.2680         0.0000      -999.2500         9.7000      -999.2500         2.5500       155.9550       155.9550        67.8000
    1659.17880       255.0160    -999.250000      -0.035000       197.5065      -999.2500        46.1000        81.8470        61.9440         0.0000      -999.2500        10.9600      -999.2500         2.5270        91.6220        91.6220        68.8000
    1659.33120       255.0160    -999.250000      -0.042000       199.1470      -999.2500        61.1000        79.0680        55.9760         0.0000      -999.2500        10.8700      -999.2500         2.5010        65.9170        65.9170        69.2000
    1659.48360       255.5240    -999.250000      -0.047000       198.4908      -999.2500        71.4000        76.5600        61.6590         0.0000      -999.2500         9.1300      -999.2500         2.4870        61.8020        61.8020        70.0000
    1659.63600       256.0320    -999.250000      -0.047000       193.5695      -999.2500        67.4000        80.3530        72.6110         0.0000      -999.2500         7.1400      -999.2500         2.5000        73.2820        73.2820        70.6000
    1659.78840       255.5240    -999.250000      -0.043000       187.6640      -999.2500        52.9000        86.8960        86.8960         0.0000      -999.2500         5.5100      -999.2500         2.5390       132.4340       132.4340        70.0000
    1659.94080       255.5240    -999.250000      -0.037000       183.3989      -999.2500        39.5000        99.5400        97.4990         0.0000      -999.2500         4.6500      -999.2500         2.5860       213.7960       213.7960        69.4000
    1660.09320       255.5240    -999.250000      -0.029000       180.7743      -999.2500        33.0000       113.7630       114.5510         0.0000      -999.2500         4.4600      -999.2500         2.6190       272.8979       272.8979        70.2000
    1660.24560       256.0320    -999.250000      -0.022000       179.1339      -999.2500        31.6000       136.1440       143.2190         0.0000      -999.2500         4.7000      -999.2500         2.6300       325.0869       325.0869        70.2000
    1660.39800       256.0320    -999.250000      -0.016000       179.1339      -999.2500        31.5000       139.9590       177.4190         0.0000      -999.2500         5.2700      -999.2500         2.6270       373.2500       373.2500        70.2000
    1660.55040       255.5240    -999.250000       0.002000       185.3674      -999.2500        32.7000       120.7810       143.2190         0.0000      -999.2500         6.3000      -999.2500         2.6250       339.6250       339.6250        70.8000
    1660.70280       255.5240    -999.250000       0.050000       197.5065      -999.2500        39.1000       100.6930        86.2980         0.0000      -999.2500         8.1300      -999.2500         2.6270       263.0271       263.0271        70.8000
    1660.85520       255.7780    -999.250000       0.111000       210.3019      -999.2500        53.0000        88.5120        54.3250         0.0000      -999.2500        10.7500      -999.2500         2.6060       202.7680       202.7680        71.0000
    1661.00760       271.2720    -999.250000       0.157000       217.8477      -999.2500        69.6000        77.0900        45.0820         0.0000      -999.2500        13.1100      -999.2500         2.5310       138.0380       138.0380        71.0000
    1661.16000       281.6860    -999.250000       0.172000       216.5354      -999.2500        79.7000        69.3430        50.4660         0.0000      -999.2500        13.8100      -999.2500         2.4170        66.9880        66.9880        70.7000
    1661.31240       273.3040    -999.250000       0.153000       208.9895      -999.2500        80.7000        66.8340        61.9440         0.0000      -999.2500        13.3500      -999.2500         2.3190        39.8110        39.8110        70.7000
    1661.46480       277.3680    -999.250000       0.102000       203.7402      -999.2500        76.7000        63.8260        71.1210         0.0000      -999.2500        12.6600      -999.2500         2.2830        38.5480        38.5480        71.4000
    1661.61720       266.9540    -999.250000       0.039000       202.0998      -999.2500        72.9000        60.9540        75.5090         0.0000      -999.2500        11.6700      -999.2500         2.3240        42.0730        42.0730        72.2000
    1661.76960       255.2700    -999.250000      -0.004000       200.7874      -999.2500        70.4000        62.0870        79.7990         0.0000      -999.2500        10.2300      -999.2500         2.4120        46.2380        46.2380        72.1000
    1661.92200       251.7140    -999.250000      -0.018000       200.7874      -999.2500        69.9000        65.0130        76.0330         0.0000      -999.2500         9.4600      -999.2500         2.4850        49.3170        49.3170        72.2000
    1662.07440       244.3480    -999.250000      -0.021000       202.0998      -999.2500        71.6000        69.3430        65.7660         0.0000      -999.2500         9.0000      -999.2500         2.5150        52.6020        52.6020        72.5000
    1662.22680       243.8400    -999.250000      -0.021000       201.7717      -999.2500        73.6000        77.8040        55.5900         0.0000      -999.2500         8.7900      -999.2500         2.5220        54.8280        54.8280        73.0000
    1662.37920       245.3640    -999.250000      -0.018000       199.1470      -999.2500        73.8000        86.8960        55.3350         0.0000      -999.2500         8.5600      -999.2500         2.5290        56.2340        56.2340        73.5000
