~Version Information Block
VERS .                 2.00:  CWLS LOG ASCII STANDARD - VERSION 2.00
WRAP .                   NO:  One line per depth step
~Well Information Block
#MNEM.UNIT        Data Type   Information
#---------- ----------------  -----------
STRT .M          1048.05480:  START DEPTH
STOP .M          2676.90600:  STOP DEPTH
STEP .M             0.15240:  STEP
NULL .              -999.25:  NULL VALUE
COMP .                     :  COMPANY
WELL .            1-CA-3-PR:  WELL
FLD  .                     :  FIELD
LOC  .                     :  LOCATION
CTRY .                     :  COUNTRY
STAT .                     :  STATE
CNTY .                     :  COUNTY
SRVC .                     :  SERVICE COMPANY
DATE .                     :  DATE
API  .                     :  API NUMBER
UWI  .                     :  UNIQUE WELL ID
~Curve Information Block
#MNEM.UNIT         API CODE   Curve Description
#---------- ----------------  -----------------
DEPTH.M                    :  INDEX503
CALI .MM                   :  Caliper
DRHO .G/C3                 :  Density Correction
DRHO .G/C3                 :  Density Correction
DT   .US/M                 :  Sonic Transit Time (Slowness)
GR   .GAPI                 :  Gamma Ray
GR   .GAPI                 :  Gamma Ray
ILD  .OHMM                 :  Deep induction resistivity
ILM  .OHMM                 :  Medium induction resistivity
ITT  .                     :  Sonic Transit Time (Slowness)
NPHI .%                    :  Neutron Porosity
NPHI .%                    :  Neutron Porosity
RHOB .G/C3                 :  Bulk Density
RHOB .G/C3                 :  Bulk Density
RLAT .OHMM                 :  Laterolog 3 resistivity
RLN  .OHMM                 :  copy of Laterolog 3 resistivity (RLAT)
SP   .MV                   :  Spontaneous potential
~Parameter Information Block
#MNEM.UNIT            Value   Description
#---------- ----------------  -----------
BS1  .              17 1/2":  Bit size 1
BS2  .              12 1/4":  Bit size 2
BS3  .                81 2/:  Bit size 3
CS1  .              13 3/8":  Casing shoe 1 - Casing size
CS2  .               9 5/8":  Casing shoe 2 - Casing size
CS3  .               5 1/2":  Casing shoe 3 - Casing size
CUR_INT_BOT.M            2676.906:  
EDF  .M                 532:  Elevation of Drill Floor
EGL  .M               526.2:  Elevation of ground level
EKB  .M               532.3:  
QCCD .                 high:  Quality level of the Log data
QCCO .                     :  Company responsible for the Log quality control
QCDT .           1999/01/13:  Date of the Log quality control
QCRM .     carregado por Bucheb:  Comments on the Log quality
QCST .                final:  Status of the Log quality
TAPE_NAME.     1CA__0003__PR_1CA__0003__PR.dlis:  
PROJECT.             Mestrado:  
SET  .                 WIRE:  
~Other Information Block
REMARKS:
R1: VIDE DEMAIS ATRIBUTOS DE CABECALHO (LOG HEADER) NO FILE CORRESPONDENTE

R1: VIDE DEMAIS ATRIBUTOS DE CABECALHO (LOG HEADER) NO FILE CORRESPONDENTE

R1: VIDE DEMAIS ATRIBUTOS DE CABECALHO (LOG HEADER) NO FILE CORRESPONDENTE

TOOL_TABLE:
TOOL #0:
NAME:            FROM__DIL
DESCRIPTION:     OH WIRELINE
TRADEMARK-NAME:  FROM  DIL
GENERIC-NAME:    OH WIRELINE
STATUS:          TRUE
TOOL #0:
NAME:            FROM__BCS
DESCRIPTION:     OH WIRELINE
TRADEMARK-NAME:  FROM  BCS
GENERIC-NAME:    OH WIRELINE
STATUS:          TRUE
TOOL #0:
NAME:            FROM__CDN
DESCRIPTION:     OH WIRELINE
TRADEMARK-NAME:  FROM  CDN
GENERIC-NAME:    OH WIRELINE
STATUS:          TRUE
# 
~A       DEPTH           CALI           DRHO           DRHO             DT             GR             GR            ILD            ILM            ITT           NPHI           NPHI           RHOB           RHOB           RLAT            RLN             SP 
# ...
    2452.57320       259.8420    -999.250000       0.266000       245.0787      -999.2500        95.2000        22.3870        20.5120         0.0000      -999.2500        22.5300      -999.2500         2.3730        22.8560        22.8560        90.1000
    2452.72560       264.1600    -999.250000       0.257000       247.0473      -999.2500       103.6000        21.1350        21.2810         0.0000      -999.2500        24.1700      -999.2500         2.3270        21.8270        21.8270        90.5000
    2452.87800       265.1760    -999.250000       0.247000       248.6877      -999.2500       111.3000        20.4640        20.6060         0.0000      -999.2500        24.4600      -999.2500         2.2780        22.1310        22.1310        90.5000
    2453.03040       270.0020    -999.250000       0.239000       249.6719      -999.2500       116.0000        19.7240        20.7970         0.0000      -999.2500        23.1600      -999.2500         2.2360        25.7630        25.7630        90.6000
    2453.18280       267.9700    -999.250000       0.235000       250.0000      -999.2500       115.8000        19.4090        21.1350         0.0000      -999.2500        22.2900      -999.2500         2.2280        27.0400        27.0400        90.7000
    2453.33520       271.0180    -999.250000       0.241000       250.9843      -999.2500       112.5000        19.7240        21.1350         0.0000      -999.2500        23.4100      -999.2500         2.2550        26.4850        26.4850        90.6000
    2453.48760       268.9860    -999.250000       0.250000       252.2966      -999.2500       110.7000        20.0910        19.9530         0.0000      -999.2500        26.3600      -999.2500         2.2830        25.9420        25.9420        90.7000
    2453.64000       250.1900    -999.250000       0.256000       255.2494      -999.2500       111.3000        20.9890        19.1870         0.0000      -999.2500        28.9700      -999.2500         2.2810        24.6600        24.6600        90.7000
    2453.79240       276.3520    -999.250000       0.255000       258.2021      -999.2500       112.6000        22.0290        20.0450         0.0000      -999.2500        29.6900      -999.2500         2.2540        23.1210        23.1210        91.2000
    2453.94480       287.2740    -999.250000       0.253000       259.1863      -999.2500       113.4000        22.7510        22.5940         0.0000      -999.2500        28.6600      -999.2500         2.2320        24.2100        24.2100        91.1000
    2454.09720       287.0200    -999.250000       0.254000       259.1863      -999.2500       114.3000        22.5940        25.8230         0.0000      -999.2500        27.4100      -999.2500         2.2350        28.1190        28.1190        91.1000
    2454.24960       289.5600    -999.250000       0.256000       258.2021      -999.2500       113.9000        22.4910        26.3030         0.0000      -999.2500        27.5100      -999.2500         2.2640        31.3330        31.3330        91.0000
    2454.40200       280.6700    -999.250000       0.257000       256.8898      -999.2500       111.6000        22.6990        24.4340         0.0000      -999.2500        27.3600      -999.2500         2.2960        33.9630        33.9630        90.9000
    2454.55440       278.8920    -999.250000       0.250000       258.2021      -999.2500       110.3000        23.2810        22.4390         0.0000      -999.2500        27.1900      -999.2500         2.3060        34.1190        34.1190        90.7000
    2454.70680       298.9580    -999.250000       0.237000       262.1391      -999.2500       110.4000        24.2100        22.8030         0.0000      -999.2500        27.9000      -999.2500         2.2840        32.0630        32.0630        90.6000
    2454.85920       300.9900    -999.250000       0.219000       267.0603      -999.2500       110.4000        24.3220        24.4910         0.0000      -999.2500        29.1900      -999.2500         2.2480        29.4440        29.4440        90.1000
    2455.01160       302.5140    -999.250000       0.208000       270.9974      -999.2500       110.5000        24.1550        25.4680         0.0000      -999.2500        30.5400      -999.2500         2.2270        27.1640        27.1640        89.7000
    2455.16400       298.9580    -999.250000       0.213000       271.9816      -999.2500       111.3000        23.0140        25.4680         0.0000      -999.2500        31.7200      -999.2500         2.2430        26.4240        26.4240        89.7000
    2455.31640       310.8960    -999.250000       0.233000       271.6536      -999.2500       110.8000        21.5280        24.5470         0.0000      -999.2500        32.5300      -999.2500         2.2820        26.1820        26.1820        89.7000
    2455.46880       312.6740    -999.250000       0.253000       270.3412      -999.2500       107.8000        20.3700        22.6990         0.0000      -999.2500        33.8900      -999.2500         2.3090        25.5270        25.5270        89.9000
    2455.62120       328.6760    -999.250000       0.261000       268.3727      -999.2500       104.5000        19.5430        21.0860         0.0000      -999.2500        35.8800      -999.2500         2.2980        24.1550        24.1550        89.9000
    2455.77360       336.0420    -999.250000       0.258000       266.0761      -999.2500       104.6000        18.9230        20.2300         0.0000      -999.2500        38.0300      -999.2500         2.2710        23.2810        23.2810        89.6000
    2455.92600       313.6900    -999.250000       0.257000       265.0919      -999.2500       107.4000        18.6640        19.0990         1.0000      -999.2500        38.7900      -999.2500         2.2690        21.8780        21.8780        89.3000
    2456.07840       301.7520    -999.250000       0.261000       265.0919      -999.2500       108.9000        18.4080        18.4930         0.0000      -999.2500        38.4700      -999.2500         2.3040        20.6540        20.6540        89.4000
    2456.23080       300.4820    -999.250000       0.268000       264.4357      -999.2500       107.7000        18.3230        17.7830         0.0000      -999.2500        37.8200      -999.2500         2.3460        20.2300        20.2300        89.1000
    2456.38320       296.4180    -999.250000       0.269000       264.7638      -999.2500       106.1000        18.5780        17.9470         0.0000      -999.2500        37.7500      -999.2500         2.3640        21.3800        21.3800        89.1000
    2456.53560       298.4500    -999.250000       0.261000       268.0446      -999.2500       106.2000        18.9230        19.3640         0.0000      -999.2500        38.7500      -999.2500         2.3490        22.9090        22.9090        89.5000
    2456.68800       300.7360    -999.250000       0.249000       271.6536      -999.2500       108.0000        19.5430        20.9410         0.0000      -999.2500        39.3400      -999.2500         2.3200        24.4910        24.4910        89.7000
    2456.84040       308.3560    -999.250000       0.239000       272.6378      -999.2500       110.2000        20.1370        21.3800         0.0000      -999.2500        38.4900      -999.2500         2.2880        26.0020        26.0020        90.2000
    2456.99280       303.7840    -999.250000       0.233000       272.3097      -999.2500       112.8000        20.3700        21.9790         0.0000      -999.2500        37.5300      -999.2500         2.2550        27.6690        27.6690        90.1000
    2457.14520       304.0380    -999.250000       0.231000       271.3254      -999.2500       117.8000        20.4640        22.9610         0.0000      -999.2500        37.7900      -999.2500         2.2300        28.5760        28.5760        90.3000
    2457.29760       309.8800    -999.250000       0.233000       270.0131      -999.2500       123.2000        20.0910        22.8030         0.0000      -999.2500        38.4300      -999.2500         2.2220        28.2490        28.2490        90.3000
