~Version Information Block
VERS .                 2.00:  CWLS LOG ASCII STANDARD - VERSION 2.00
WRAP .                   NO:  One line per depth step
~Well Information Block
#MNEM.UNIT        Data Type   Information
#---------- ----------------  -----------
STRT .M          1048.05480:  START DEPTH
STOP .M          2676.90600:  STOP DEPTH
STEP .M             0.15240:  STEP
NULL .              -999.25:  NULL VALUE
COMP .                     :  COMPANY
WELL .            1-CA-3-PR:  WELL
FLD  .                     :  FIELD
LOC  .                     :  LOCATION
CTRY .                     :  COUNTRY
STAT .                     :  STATE
CNTY .                     :  COUNTY
SRVC .                     :  SERVICE COMPANY
DATE .                     :  DATE
API  .                     :  API NUMBER
UWI  .                     :  UNIQUE WELL ID
~Curve Information Block
#MNEM.UNIT         API CODE   Curve Description
#---------- ----------------  -----------------
DEPTH.M                    :  INDEX503
CALI .MM                   :  Caliper
DRHO .G/C3                 :  Density Correction
DRHO .G/C3                 :  Density Correction
DT   .US/M                 :  Sonic Transit Time (Slowness)
GR   .GAPI                 :  Gamma Ray
GR   .GAPI                 :  Gamma Ray
ILD  .OHMM                 :  Deep induction resistivity
ILM  .OHMM                 :  Medium induction resistivity
ITT  .                     :  Sonic Transit Time (Slowness)
NPHI .%                    :  Neutron Porosity
NPHI .%                    :  Neutron Porosity
RHOB .G/C3                 :  Bulk Density
RHOB .G/C3                 :  Bulk Density
RLAT .OHMM                 :  Laterolog 3 resistivity
RLN  .OHMM                 :  copy of Laterolog 3 resistivity (RLAT)
SP   .MV                   :  Spontaneous potential
~Parameter Information Block
#MNEM.UNIT            Value   Description
#---------- ----------------  -----------
BS1  .              17 1/2":  Bit size 1
BS2  .              12 1/4":  Bit size 2
BS3  .                81 2/:  Bit size 3
CS1  .              13 3/8":  Casing shoe 1 - Casing size
CS2  .               9 5/8":  Casing shoe 2 - Casing size
CS3  .               5 1/2":  Casing shoe 3 - Casing size
CUR_INT_BOT.M            2676.906:  
EDF  .M                 532:  Elevation of Drill Floor
EGL  .M               526.2:  Elevation of ground level
EKB  .M               532.3:  
QCCD .                 high:  Quality level of the Log data
QCCO .                     :  Company responsible for the Log quality control
QCDT .           1999/01/13:  Date of the Log quality control
QCRM .     carregado por Bucheb:  Comments on the Log quality
QCST .                final:  Status of the Log quality
TAPE_NAME.     1CA__0003__PR_1CA__0003__PR.dlis:  
PROJECT.             Mestrado:  
SET  .                 WIRE:  
~Other Information Block
REMARKS:
R1: VIDE DEMAIS ATRIBUTOS DE CABECALHO (LOG HEADER) NO FILE CORRESPONDENTE

R1: VIDE DEMAIS ATRIBUTOS DE CABECALHO (LOG HEADER) NO FILE CORRESPONDENTE

R1: VIDE DEMAIS ATRIBUTOS DE CABECALHO (LOG HEADER) NO FILE CORRESPONDENTE

TOOL_TABLE:
TOOL #0:
NAME:            FROM__DIL
DESCRIPTION:     OH WIRELINE
TRADEMARK-NAME:  FROM  DIL
GENERIC-NAME:    OH WIRELINE
STATUS:          TRUE
TOOL #0:
NAME:            FROM__BCS
DESCRIPTION:     OH WIRELINE
TRADEMARK-NAME:  FROM  BCS
GENERIC-NAME:    OH WIRELINE
STATUS:          TRUE
TOOL #0:
NAME:            FROM__CDN
DESCRIPTION:     OH WIRELINE
TRADEMARK-NAME:  FROM  CDN
GENERIC-NAME:    OH WIRELINE
STATUS:          TRUE
# 
~A       DEPTH           CALI           DRHO           DRHO             DT             GR             GR            ILD            ILM            ITT           NPHI           NPHI           RHOB           RHOB           RLAT            RLN             SP 
# ...
    2233.11720       367.0300    -999.250000       0.187000       244.0945      -999.2500       108.6000        20.5120        20.7970         0.0000      -999.2500        23.6000      -999.2500         2.5090        19.2750        19.2750        81.5000
    2233.26960       367.5380    -999.250000       0.204000       243.1103      -999.2500       104.7000        18.2390        18.5780         0.0000      -999.2500        26.3000      -999.2500         2.5190        18.0300        18.0300        81.2000
    2233.42200       371.3480    -999.250000       0.224000       242.1260      -999.2500       101.6000        16.7880        15.1710         0.0000      -999.2500        26.6200      -999.2500         2.5130        16.4440        16.4440        80.3000
    2233.57440       381.7620    -999.250000       0.229000       241.7979      -999.2500        99.9000        16.0690        12.4740         0.0000      -999.2500        24.9000      -999.2500         2.4960        15.3110        15.3110        80.3000
    2233.72680       384.3020    -999.250000       0.215000       241.7979      -999.2500       100.2000        15.5960        11.2720         0.0000      -999.2500        23.1300      -999.2500         2.4860        14.7910        14.7910        80.1000
    2233.87920       388.3660    -999.250000       0.196000       238.5170      -999.2500       101.5000        15.5600        11.5080         0.0000      -999.2500        22.4600      -999.2500         2.4970        14.7910        14.7910        80.3000
    2234.03160       390.3980    -999.250000       0.184000       236.8766      -999.2500       103.1000        15.7400        12.4740         1.0000      -999.2500        22.7900      -999.2500         2.5170        15.4170        15.4170        80.9000
    2234.18400       387.3500    -999.250000       0.183000       242.4541      -999.2500       105.2000        16.5960        13.6770         0.0000      -999.2500        23.6700      -999.2500         2.5170        16.4060        16.4060        81.6000
    2234.33640       380.4920    -999.250000       0.190000       247.3753      -999.2500       106.5000        19.0110        15.6310         0.0000      -999.2500        26.0300      -999.2500         2.4910        17.0610        17.0610        81.9000
    2234.48880       373.8880    -999.250000       0.201000       248.3596      -999.2500       104.8000        22.2330        19.3200         0.0000      -999.2500        29.3700      -999.2500         2.4520        17.2580        17.2580        82.8000
    2234.64120       393.1920    -999.250000       0.210000       254.9212      -999.2500       101.8000        24.9460        22.8030         0.0000      -999.2500        31.3300      -999.2500         2.4220        17.0220        17.0220        82.9000
    2234.79360       395.2240    -999.250000       0.215000       268.7008      -999.2500        99.6000        26.0620        23.7680         0.0000      -999.2500        30.7700      -999.2500         2.4090        16.4440        16.4440        82.7000
    2234.94600       395.7320    -999.250000       0.215000       273.6220      -999.2500        98.1000        25.7630        21.6770         0.0000      -999.2500        29.2600      -999.2500         2.4080        16.2550        16.2550        82.4000
    2235.09840       395.7320    -999.250000       0.194000       264.1076      -999.2500        95.6000        23.3880        20.5120         0.0000      -999.2500        28.4100      -999.2500         2.3990        16.3310        16.3310        81.9000
    2235.25080       395.7320    -999.250000       0.175000       248.3596      -999.2500        92.8000        21.9790        19.4540         0.0000      -999.2500        27.1500      -999.2500         2.3760        16.6340        16.6340        81.7000
    2235.40320       396.2400    -999.250000       0.158000       235.8924      -999.2500        92.9000        22.2330        17.3380         0.0000      -999.2500        25.3100      -999.2500         2.3310        17.0610        17.0610        81.5000
    2235.55560       396.4940    -999.250000       0.145000       228.0184      -999.2500        95.4000        25.2930        15.8850         0.0000      -999.2500        24.4100      -999.2500         2.2620        17.9060        17.9060        81.2000
    2235.70800       396.2400    -999.250000       0.136000       221.1286      -999.2500        96.2000        41.4000        16.7490         0.0000      -999.2500        27.1600      -999.2500         2.1880        18.4500        18.4500        80.3000
    2235.86040       396.2400    -999.250000       0.137000       229.9869      -999.2500        93.8000    100000.0000        23.1210         0.0000      -999.2500        33.6700      -999.2500         2.1370        19.2750        19.2750        79.7000
    2236.01280       397.0020    -999.250000       0.144000       249.6719      -999.2500        89.3000    100000.0000        68.5490         0.0000      -999.2500        37.0400      -999.2500         2.1240        22.0800        22.0800        79.3000
    2236.16520       396.7480    -999.250000       0.155000       243.7664      -999.2500        83.5000    100000.0000    100000.0000         0.0000      -999.2500        30.4800      -999.2500         2.1510        26.9770        26.9770        78.6000
    2236.31760       396.2400    -999.250000       0.169000       208.6614      -999.2500        74.8000    100000.0000    100000.0000         0.0000      -999.2500        19.8200      -999.2500         2.2130        32.1370        32.1370        78.2000
    2236.47000       396.2400    -999.250000       0.185000       183.0709      -999.2500        62.1000    100000.0000    100000.0000         0.0000      -999.2500        13.8600      -999.2500         2.2960        35.8100        35.8100        81.9000
    2236.62240       383.7940    -999.250000       0.199000       185.6956      -999.2500        48.3000    100000.0000    100000.0000         0.0000      -999.2500        11.0100      -999.2500         2.3770        36.7280        36.7280        81.9000
    2236.77480       352.2980    -999.250000       0.206000       204.0682      -999.2500        39.0000    100000.0000    100000.0000         0.0000      -999.2500        10.3400      -999.2500         2.4300        32.9610        32.9610        80.9000
    2236.92720       330.9620    -999.250000       0.203000       217.1916      -999.2500        36.6000    100000.0000         7.1780         0.0000      -999.2500        10.3900      -999.2500         2.4360        26.6690        26.6690        79.8000
    2237.07960       342.3920    -999.250000       0.190000       225.0656      -999.2500        37.7000        20.5120         1.1270         0.0000      -999.2500        10.6000      -999.2500         2.4050        18.7500        18.7500        80.1000
    2237.23200       357.3780    -999.250000       0.179000       220.1444      -999.2500        40.2000         0.8550         0.4820         0.0000      -999.2500        11.3900      -999.2500         2.3840        11.5880        11.5880        86.3000
    2237.38440       364.4900    -999.250000       0.188000       212.9265      -999.2500        46.3000         0.4010         0.3400         0.0000      -999.2500        13.7000      -999.2500         2.4170         6.5310         6.5310        82.7000
    2237.53680       369.5700    -999.250000       0.219000       203.0840      -999.2500        56.6000         0.3210         0.2900         0.0000      -999.2500        16.1600      -999.2500         2.4640         4.3750         4.3750        81.9000
    2237.68920       344.9320    -999.250000       0.249000       198.1627      -999.2500        65.8000         0.3010         0.3130         0.0000      -999.2500        17.1100      -999.2500         2.4510         3.6140         3.6140        81.9000
    2237.84160       331.9780    -999.250000       0.256000       206.0368      -999.2500        69.1000         0.3330         0.4890         0.0000      -999.2500        16.9100      -999.2500         2.3730         4.8750         4.8750        81.7000
