~Version Information Block
VERS .                 2.00:  CWLS LOG ASCII STANDARD - VERSION 2.00
WRAP .                   NO:  One line per depth step
~Well Information Block
#MNEM.UNIT        Data Type   Information
#---------- ----------------  -----------
STRT .M          1048.05480:  START DEPTH
STOP .M          2676.90600:  STOP DEPTH
STEP .M             0.15240:  STEP
NULL .              -999.25:  NULL VALUE
COMP .                     :  COMPANY
WELL .            1-CA-3-PR:  WELL
FLD  .                     :  FIELD
LOC  .                     :  LOCATION
CTRY .                     :  COUNTRY
STAT .                     :  STATE
CNTY .                     :  COUNTY
SRVC .                     :  SERVICE COMPANY
DATE .                     :  DATE
API  .                     :  API NUMBER
UWI  .                     :  UNIQUE WELL ID
~Curve Information Block
#MNEM.UNIT         API CODE   Curve Description
#---------- ----------------  -----------------
DEPTH.M                    :  INDEX503
CALI .MM                   :  Caliper
DRHO .G/C3                 :  Density Correction
DRHO .G/C3                 :  Density Correction
DT   .US/M                 :  Sonic Transit Time (Slowness)
GR   .GAPI                 :  Gamma Ray
GR   .GAPI                 :  Gamma Ray
ILD  .OHMM                 :  Deep induction resistivity
ILM  .OHMM                 :  Medium induction resistivity
ITT  .                     :  Sonic Transit Time (Slowness)
NPHI .%                    :  Neutron Porosity
NPHI .%                    :  Neutron Porosity
RHOB .G/C3                 :  Bulk Density
RHOB .G/C3                 :  Bulk Density
RLAT .OHMM                 :  Laterolog 3 resistivity
RLN  .OHMM                 :  copy of Laterolog 3 resistivity (RLAT)
SP   .MV                   :  Spontaneous potential
~Parameter Information Block
#MNEM.UNIT            Value   Description
#---------- ----------------  -----------
BS1  .              17 1/2":  Bit size 1
BS2  .              12 1/4":  Bit size 2
BS3  .                81 2/:  Bit size 3
CS1  .              13 3/8":  Casing shoe 1 - Casing size
CS2  .               9 5/8":  Casing shoe 2 - Casing size
CS3  .               5 1/2":  Casing shoe 3 - Casing size
CUR_INT_BOT.M            2676.906:  
EDF  .M                 532:  Elevation of Drill Floor
EGL  .M               526.2:  Elevation of ground level
EKB  .M               532.3:  
QCCD .                 high:  Quality level of the Log data
QCCO .                     :  Company responsible for the Log quality control
QCDT .           1999/01/13:  Date of the Log quality control
QCRM .     carregado por Bucheb:  Comments on the Log quality
QCST .                final:  Status of the Log quality
TAPE_NAME.     1CA__0003__PR_1CA__0003__PR.dlis:  
PROJECT.             Mestrado:  
SET  .                 WIRE:  
~Other Information Block
REMARKS:
R1: VIDE DEMAIS ATRIBUTOS DE CABECALHO (LOG HEADER) NO FILE CORRESPONDENTE

R1: VIDE DEMAIS ATRIBUTOS DE CABECALHO (LOG HEADER) NO FILE CORRESPONDENTE

R1: VIDE DEMAIS ATRIBUTOS DE CABECALHO (LOG HEADER) NO FILE CORRESPONDENTE

TOOL_TABLE:
TOOL #0:
NAME:            FROM__DIL
DESCRIPTION:     OH WIRELINE
TRADEMARK-NAME:  FROM  DIL
GENERIC-NAME:    OH WIRELINE
STATUS:          TRUE
TOOL #0:
NAME:            FROM__BCS
DESCRIPTION:     OH WIRELINE
TRADEMARK-NAME:  FROM  BCS
GENERIC-NAME:    OH WIRELINE
STATUS:          TRUE
TOOL #0:
NAME:            FROM__CDN
DESCRIPTION:     OH WIRELINE
TRADEMARK-NAME:  FROM  CDN
GENERIC-NAME:    OH WIRELINE
STATUS:          TRUE
# 
~A       DEPTH           CALI           DRHO           DRHO             DT             GR             GR            ILD            ILM            ITT           NPHI           NPHI           RHOB           RHOB           RLAT            RLN             SP 
# ...
    2018.53800       269.4940    -999.250000       0.295000       171.5879      -999.2500        38.4000    100000.0000    100000.0000         0.0000      -999.2500        10.9500      -999.2500         2.6260      1119.4370      1119.4370        52.7000
    2018.69040       265.1760    -999.250000       0.283000       172.2441      -999.2500        38.8000    100000.0000    100000.0000         0.0000      -999.2500        10.9000      -999.2500         2.6670      1135.0100      1135.0100        52.8000
    2018.84280       267.4620    -999.250000       0.270000       173.2284      -999.2500        38.7000    100000.0000    100000.0000         0.0000      -999.2500        10.7000      -999.2500         2.7040      1166.8091      1166.8091        53.6000
    2018.99520       276.8600    -999.250000       0.250000       173.5564      -999.2500        38.4000    100000.0000    100000.0000         0.0000      -999.2500        10.6800      -999.2500         2.7180      1205.0349      1205.0349        54.3000
    2019.14760       266.7000    -999.250000       0.230000       172.2441      -999.2500        40.0000    100000.0000    100000.0000         0.0000      -999.2500        10.8800      -999.2500         2.7130      1256.0310      1256.0310        54.3000
    2019.30000       259.0800    -999.250000       0.233000       170.2756      -999.2500        43.0000    100000.0000    100000.0000         0.0000      -999.2500        11.3600      -999.2500         2.7040      1306.1699      1306.1699        53.8000
    2019.45240       254.0000    -999.250000       0.258000       168.9633      -999.2500        44.8000    100000.0000    100000.0000         0.0000      -999.2500        11.8800      -999.2500         2.7000      1336.5959      1336.5959        53.8000
    2019.60480       257.5560    -999.250000       0.284000       168.9633      -999.2500        45.1000    100000.0000    100000.0000         0.0000      -999.2500        11.7600      -999.2500         2.6960      1377.2100      1377.2100        54.0000
    2019.75720       263.3980    -999.250000       0.292000       169.2914      -999.2500        44.8000    100000.0000    100000.0000         0.0000      -999.2500        11.4400      -999.2500         2.6820      1419.0581      1419.0581        54.6000
    2019.90960       265.9380    -999.250000       0.293000       169.9475      -999.2500        44.2000    100000.0000    100000.0000         0.0000      -999.2500        10.9900      -999.2500         2.6650      1448.7720      1448.7720        54.6000
    2020.06200       253.2380    -999.250000       0.300000       170.2756      -999.2500        44.0000    100000.0000    100000.0000         0.0000      -999.2500        10.7500      -999.2500         2.6630      1455.4590      1455.4590        53.8000
    2020.21440       255.2700    -999.250000       0.315000       169.6194      -999.2500        44.4000    100000.0000    100000.0000         0.0000      -999.2500        10.8600      -999.2500         2.6730      1458.8130      1458.8130        52.2000
    2020.36680       252.9840    -999.250000       0.323000       167.9790      -999.2500        43.7000    100000.0000    100000.0000         0.0000      -999.2500        11.2500      -999.2500         2.6780      1465.5491      1465.5491        51.0000
    2020.51920       252.4760    -999.250000       0.319000       166.6667      -999.2500        41.3000    100000.0000    100000.0000         0.0000      -999.2500        11.4500      -999.2500         2.6670      1510.0791      1510.0791        51.1000
    2020.67160       249.6820    -999.250000       0.301000       166.0105      -999.2500        39.3000    100000.0000    100000.0000         0.0000      -999.2500        11.4800      -999.2500         2.6520      1588.5449      1588.5449        52.2000
    2020.82400       247.6500    -999.250000       0.268000       166.3386      -999.2500        39.6000    100000.0000    100000.0000         0.0000      -999.2500        11.1200      -999.2500         2.6530      1655.7700      1655.7700        53.1000
    2020.97640       245.1100    -999.250000       0.217000       166.0105      -999.2500        39.6000    100000.0000    100000.0000         0.0000      -999.2500        10.7600      -999.2500         2.6770      1678.8030      1678.8030        53.0000
    2021.12880       243.5860    -999.250000       0.156000       165.0263      -999.2500        37.2000    100000.0000    100000.0000         0.0000      -999.2500        10.3400      -999.2500         2.7220      1682.6750      1682.6750        52.6000
    2021.28120       245.1100    -999.250000       0.105000       164.6982      -999.2500        34.6000    100000.0000    100000.0000         0.0000      -999.2500         9.8700      -999.2500         2.7770      1674.9431      1674.9431        52.6000
    2021.43360       241.8080    -999.250000       0.088000       165.6824      -999.2500        34.1000    100000.0000    100000.0000         0.0000      -999.2500         9.5100      -999.2500         2.8310      1640.5879      1640.5879        52.6000
    2021.58600       246.1260    -999.250000       0.105000       166.0105      -999.2500        34.8000    100000.0000    100000.0000         0.0000      -999.2500         9.3600      -999.2500         2.8730      1625.5481      1625.5481        52.2000
    2021.73840       245.8720    -999.250000       0.131000       165.6824      -999.2500        34.6000    100000.0000    100000.0000         0.0000      -999.2500         9.3300      -999.2500         2.8940      1621.8081      1621.8081        51.6000
    2021.89080       241.0460    -999.250000       0.142000       166.3386      -999.2500        34.2000    100000.0000    100000.0000         0.0000      -999.2500         9.3100      -999.2500         2.8940      1621.8081      1621.8081        51.4000
    2022.04320       242.3160    -999.250000       0.143000       166.6667      -999.2500        35.4000    100000.0000    100000.0000         0.0000      -999.2500         9.3500      -999.2500         2.8870      1595.8770      1595.8770        51.4000
    2022.19560       250.1900    -999.250000       0.144000       166.9947      -999.2500        37.1000    100000.0000      1216.1841         0.0000      -999.2500         9.3200      -999.2500         2.8740      1541.6990      1541.6990        51.4000
    2022.34800       253.7460    -999.250000       0.135000       167.6509      -999.2500        37.8000    100000.0000    100000.0000         0.0000      -999.2500         9.3400      -999.2500         2.8510      1475.7051      1475.7051        52.2000
    2022.50040       265.4300    -999.250000       0.105000       167.9790      -999.2500        38.1000    100000.0000    100000.0000         1.0000      -999.2500         9.6200      -999.2500         2.8230      1374.0430      1374.0430        52.4000
    2022.65280       258.0640    -999.250000       0.065000       166.9947      -999.2500        37.7000    100000.0000    100000.0000         0.0000      -999.2500        10.0800      -999.2500         2.8090      1221.7991      1221.7991        52.0000
    2022.80520       242.3160    -999.250000       0.041000       166.0105      -999.2500        36.2000    100000.0000    100000.0000         0.0000      -999.2500        10.4000      -999.2500         2.8200      1013.9109      1013.9109        53.5000
    2022.95760       244.6020    -999.250000       0.050000       166.0105      -999.2500        34.4000    100000.0000    100000.0000         0.0000      -999.2500        10.9500      -999.2500         2.8410       820.3511       820.3511        53.2000
    2023.11000       252.2220    -999.250000       0.080000       166.9947      -999.2500        35.0000    100000.0000       812.8301         0.0000      -999.2500        11.3800      -999.2500         2.8330       722.7690       722.7690        53.2000
    2023.26240       256.2860    -999.250000       0.110000       167.6509      -999.2500        38.3000    100000.0000       812.8301         0.0000      -999.2500        11.4100      -999.2500         2.7780       760.3259       760.3259        53.8000
