~Version Information Block
VERS .                 2.00:  CWLS LOG ASCII STANDARD - VERSION 2.00
WRAP .                   NO:  One line per depth step
~Well Information Block
#MNEM.UNIT        Data Type   Information
#---------- ----------------  -----------
STRT .M          1048.05480:  START DEPTH
STOP .M          2676.90600:  STOP DEPTH
STEP .M             0.15240:  STEP
NULL .              -999.25:  NULL VALUE
COMP .                     :  COMPANY
WELL .            1-CA-3-PR:  WELL
FLD  .                     :  FIELD
LOC  .                     :  LOCATION
CTRY .                     :  COUNTRY
STAT .                     :  STATE
CNTY .                     :  COUNTY
SRVC .                     :  SERVICE COMPANY
DATE .                     :  DATE
API  .                     :  API NUMBER
UWI  .                     :  UNIQUE WELL ID
~Curve Information Block
#MNEM.UNIT         API CODE   Curve Description
#---------- ----------------  -----------------
DEPTH.M                    :  INDEX503
CALI .MM                   :  Caliper
DRHO .G/C3                 :  Density Correction
DRHO .G/C3                 :  Density Correction
DT   .US/M                 :  Sonic Transit Time (Slowness)
GR   .GAPI                 :  Gamma Ray
GR   .GAPI                 :  Gamma Ray
ILD  .OHMM                 :  Deep induction resistivity
ILM  .OHMM                 :  Medium induction resistivity
ITT  .                     :  Sonic Transit Time (Slowness)
NPHI .%                    :  Neutron Porosity
NPHI .%                    :  Neutron Porosity
RHOB .G/C3                 :  Bulk Density
RHOB .G/C3                 :  Bulk Density
RLAT .OHMM                 :  Laterolog 3 resistivity
RLN  .OHMM                 :  copy of Laterolog 3 resistivity (RLAT)
SP   .MV                   :  Spontaneous potential
~Parameter Information Block
#MNEM.UNIT            Value   Description
#---------- ----------------  -----------
BS1  .              17 1/2":  Bit size 1
BS2  .              12 1/4":  Bit size 2
BS3  .                81 2/:  Bit size 3
CS1  .              13 3/8":  Casing shoe 1 - Casing size
CS2  .               9 5/8":  Casing shoe 2 - Casing size
CS3  .               5 1/2":  Casing shoe 3 - Casing size
CUR_INT_BOT.M            2676.906:  
EDF  .M                 532:  Elevation of Drill Floor
EGL  .M               526.2:  Elevation of ground level
EKB  .M               532.3:  
QCCD .                 high:  Quality level of the Log data
QCCO .                     :  Company responsible for the Log quality control
QCDT .           1999/01/13:  Date of the Log quality control
QCRM .     carregado por Bucheb:  Comments on the Log quality
QCST .                final:  Status of the Log quality
TAPE_NAME.     1CA__0003__PR_1CA__0003__PR.dlis:  
PROJECT.             Mestrado:  
SET  .                 WIRE:  
~Other Information Block
REMARKS:
R1: VIDE DEMAIS ATRIBUTOS DE CABECALHO (LOG HEADER) NO FILE CORRESPONDENTE

R1: VIDE DEMAIS ATRIBUTOS DE CABECALHO (LOG HEADER) NO FILE CORRESPONDENTE

R1: VIDE DEMAIS ATRIBUTOS DE CABECALHO (LOG HEADER) NO FILE CORRESPONDENTE

TOOL_TABLE:
TOOL #0:
NAME:            FROM__DIL
DESCRIPTION:     OH WIRELINE
TRADEMARK-NAME:  FROM  DIL
GENERIC-NAME:    OH WIRELINE
STATUS:          TRUE
TOOL #0:
NAME:            FROM__BCS
DESCRIPTION:     OH WIRELINE
TRADEMARK-NAME:  FROM  BCS
GENERIC-NAME:    OH WIRELINE
STATUS:          TRUE
TOOL #0:
NAME:            FROM__CDN
DESCRIPTION:     OH WIRELINE
TRADEMARK-NAME:  FROM  CDN
GENERIC-NAME:    OH WIRELINE
STATUS:          TRUE
# 
~A       DEPTH           CALI           DRHO           DRHO             DT             GR             GR            ILD            ILM            ITT           NPHI           NPHI           RHOB           RHOB           RLAT            RLN             SP 
# ...
    2520.84840       270.2560    -999.250000       0.248000       261.4829      -999.2500       114.3000        31.4770        32.2850         0.0000      -999.2500        31.6300      -999.2500         2.4810        38.8150        38.8150        91.5000
    2521.00080       265.1760    -999.250000       0.251000       264.7638      -999.2500       110.6000        31.9150        33.0370         0.0000      -999.2500        32.2700      -999.2500         2.5080        39.7190        39.7190        91.7000
    2521.15320       259.5880    -999.250000       0.248000       267.7166      -999.2500       107.8000        32.3590        35.4810         0.0000      -999.2500        31.7200      -999.2500         2.5140        41.6870        41.6870        91.6000
    2521.30560       251.2060    -999.250000       0.238000       269.0289      -999.2500       106.7000        32.9610        38.2820         0.0000      -999.2500        30.0400      -999.2500         2.5140        44.3610        44.3610        91.7000
    2521.45800       252.2220    -999.250000       0.227000       267.0603      -999.2500       106.8000        33.6510        38.9040         0.0000      -999.2500        28.5200      -999.2500         2.5170        46.5590        46.5590        91.6000
    2521.61040       246.3800    -999.250000       0.222000       261.8110      -999.2500       108.7000        34.5140        39.7190         0.0000      -999.2500        27.8200      -999.2500         2.5220        48.0840        48.0840        91.1000
    2521.76280       235.9660    -999.250000       0.225000       256.5617      -999.2500       111.6000        34.5140        41.4000         0.0000      -999.2500        27.5100      -999.2500         2.5300        50.2340        50.2340        91.5000
    2521.91520       241.8080    -999.250000       0.235000       253.2808      -999.2500       113.1000        34.1190        40.5510         0.0000      -999.2500        27.3100      -999.2500         2.5410        49.5450        49.5450        91.3000
    2522.06760       244.3480    -999.250000       0.252000       251.3124      -999.2500       111.7000        34.6740        37.4970         0.0000      -999.2500        27.7100      -999.2500         2.5480        47.2060        47.2060        91.3000
    2522.22000       243.3320    -999.250000       0.270000       250.3281      -999.2500       109.6000        34.2770        37.4110         0.0000      -999.2500        29.0700      -999.2500         2.5450        45.3940        45.3940        91.8000
    2522.37240       248.1580    -999.250000       0.270000       250.3281      -999.2500       110.3000        34.0410        37.9310         0.0000      -999.2500        30.7100      -999.2500         2.5300        45.3940        45.3940        91.7000
    2522.52480       245.3640    -999.250000       0.240000       251.6404      -999.2500       110.9000        33.1890        36.8130         0.0000      -999.2500        31.8600      -999.2500         2.5170        44.2590        44.2590        91.6000
    2522.67720       255.0160    -999.250000       0.199000       253.6089      -999.2500       110.4000        32.5840        34.3560         0.0000      -999.2500        31.7800      -999.2500         2.5250        44.2590        44.2590        91.8000
    2522.82960       241.8080    -999.250000       0.182000       255.9055      -999.2500       109.1000        31.6230        35.8920         1.0000      -999.2500        29.7800      -999.2500         2.5510        44.2590        44.2590        91.8000
    2522.98200       236.9820    -999.250000       0.201000       257.5459      -999.2500       109.5000        31.0460        36.1410         0.0000      -999.2500        27.1400      -999.2500         2.5440        42.7560        42.7560        92.1000
    2523.13440       236.7280    -999.250000       0.229000       255.9055      -999.2500       112.5000        30.8320        33.9630         0.0000      -999.2500        26.7500      -999.2500         2.4720        40.0870        40.0870        91.8000
    2523.28680       252.4760    -999.250000       0.243000       252.2966      -999.2500       115.9000        29.5120        32.7340         0.0000      -999.2500        27.7400      -999.2500         2.3800        38.5480        38.5480        91.8000
    2523.43920       262.6360    -999.250000       0.241000       250.6561      -999.2500       116.8000        27.6060        33.4970         0.0000      -999.2500        28.8100      -999.2500         2.3340        38.2820        38.2820        91.7000
    2523.59160       268.4780    -999.250000       0.237000       248.3596      -999.2500       115.7000        25.7040        30.6200         0.0000      -999.2500        29.2500      -999.2500         2.3550        36.1410        36.1410        91.6000
    2523.74400       261.6200    -999.250000       0.240000       247.0473      -999.2500       112.8000        23.6590        25.3510         0.0000      -999.2500        29.6300      -999.2500         2.4070        34.1190        34.1190        91.7000
    2523.89640       244.6020    -999.250000       0.249000       247.7034      -999.2500       107.4000        21.9280        21.4290         0.0000      -999.2500        29.8600      -999.2500         2.4340        31.1890        31.1890        91.3000
    2524.04880       258.0640    -999.250000       0.256000       248.3596      -999.2500       103.2000        21.0860        19.6790         0.0000      -999.2500        30.2900      -999.2500         2.4230        27.4160        27.4160        91.5000
    2524.20120       272.7960    -999.250000       0.259000       249.0157      -999.2500       102.1000        20.2300        18.9230         0.0000      -999.2500        31.2800      -999.2500         2.4040        22.5420        22.5420        91.8000
    2524.35360       274.8280    -999.250000       0.257000       249.3438      -999.2500       101.6000        19.1870        18.6640         0.0000      -999.2500        32.3000      -999.2500         2.3920        20.7490        20.7490        92.1000
    2524.50600       280.6700    -999.250000       0.252000       249.6719      -999.2500        98.7000        18.4500        18.1130         0.0000      -999.2500        32.4300      -999.2500         2.3790        20.4640        20.4640        92.1000
    2524.65840       277.8760    -999.250000       0.245000       249.3438      -999.2500        95.0000        18.4080        17.9890         0.0000      -999.2500        30.5300      -999.2500         2.3610        21.0860        21.0860        91.8000
    2524.81080       277.1140    -999.250000       0.241000       249.3438      -999.2500        94.7000        18.6640        18.8360         0.0000      -999.2500        27.6900      -999.2500         2.3540        22.0800        22.0800        92.0000
    2524.96320       276.8600    -999.250000       0.243000       249.3438      -999.2500        98.1000        19.2750        20.2770         0.0000      -999.2500        26.0700      -999.2500         2.3720        23.7680        23.7680        91.7000
    2525.11560       277.1140    -999.250000       0.254000       249.3438      -999.2500       104.0000        19.9990        21.7270         0.0000      -999.2500        26.3600      -999.2500         2.4060        25.5860        25.5860        92.4000
    2525.26800       266.9540    -999.250000       0.267000       248.3596      -999.2500       108.9000        21.1350        22.9610         0.0000      -999.2500        28.0000      -999.2500         2.4360        27.4160        27.4160        93.0000
    2525.42040       265.4300    -999.250000       0.275000       246.7191      -999.2500       109.4000        22.3360        24.3780         0.0000      -999.2500        28.9400      -999.2500         2.4490        29.1740        29.1740        93.2000
    2525.57280       263.1440    -999.250000       0.277000       246.0630      -999.2500       106.9000        23.6050        25.8820         0.0000      -999.2500        28.0600      -999.2500         2.4490        30.4090        30.4090        93.7000
