~Version Information Block
VERS .                 2.00:  CWLS LOG ASCII STANDARD - VERSION 2.00
WRAP .                   NO:  One line per depth step
~Well Information Block
#MNEM.UNIT        Data Type   Information
#---------- ----------------  -----------
STRT .M          1048.05480:  START DEPTH
STOP .M          2676.90600:  STOP DEPTH
STEP .M             0.15240:  STEP
NULL .              -999.25:  NULL VALUE
COMP .                     :  COMPANY
WELL .            1-CA-3-PR:  WELL
FLD  .                     :  FIELD
LOC  .                     :  LOCATION
CTRY .                     :  COUNTRY
STAT .                     :  STATE
CNTY .                     :  COUNTY
SRVC .                     :  SERVICE COMPANY
DATE .                     :  DATE
API  .                     :  API NUMBER
UWI  .                     :  UNIQUE WELL ID
~Curve Information Block
#MNEM.UNIT         API CODE   Curve Description
#---------- ----------------  -----------------
DEPTH.M                    :  INDEX503
CALI .MM                   :  Caliper
DRHO .G/C3                 :  Density Correction
DRHO .G/C3                 :  Density Correction
DT   .US/M                 :  Sonic Transit Time (Slowness)
GR   .GAPI                 :  Gamma Ray
GR   .GAPI                 :  Gamma Ray
ILD  .OHMM                 :  Deep induction resistivity
ILM  .OHMM                 :  Medium induction resistivity
ITT  .                     :  Sonic Transit Time (Slowness)
NPHI .%                    :  Neutron Porosity
NPHI .%                    :  Neutron Porosity
RHOB .G/C3                 :  Bulk Density
RHOB .G/C3                 :  Bulk Density
RLAT .OHMM                 :  Laterolog 3 resistivity
RLN  .OHMM                 :  copy of Laterolog 3 resistivity (RLAT)
SP   .MV                   :  Spontaneous potential
~Parameter Information Block
#MNEM.UNIT            Value   Description
#---------- ----------------  -----------
BS1  .              17 1/2":  Bit size 1
BS2  .              12 1/4":  Bit size 2
BS3  .                81 2/:  Bit size 3
CS1  .              13 3/8":  Casing shoe 1 - Casing size
CS2  .               9 5/8":  Casing shoe 2 - Casing size
CS3  .               5 1/2":  Casing shoe 3 - Casing size
CUR_INT_BOT.M            2676.906:  
EDF  .M                 532:  Elevation of Drill Floor
EGL  .M               526.2:  Elevation of ground level
EKB  .M               532.3:  
QCCD .                 high:  Quality level of the Log data
QCCO .                     :  Company responsible for the Log quality control
QCDT .           1999/01/13:  Date of the Log quality control
QCRM .     carregado por Bucheb:  Comments on the Log quality
QCST .                final:  Status of the Log quality
TAPE_NAME.     1CA__0003__PR_1CA__0003__PR.dlis:  
PROJECT.             Mestrado:  
SET  .                 WIRE:  
~Other Information Block
REMARKS:
R1: VIDE DEMAIS ATRIBUTOS DE CABECALHO (LOG HEADER) NO FILE CORRESPONDENTE

R1: VIDE DEMAIS ATRIBUTOS DE CABECALHO (LOG HEADER) NO FILE CORRESPONDENTE

R1: VIDE DEMAIS ATRIBUTOS DE CABECALHO (LOG HEADER) NO FILE CORRESPONDENTE

TOOL_TABLE:
TOOL #0:
NAME:            FROM__DIL
DESCRIPTION:     OH WIRELINE
TRADEMARK-NAME:  FROM  DIL
GENERIC-NAME:    OH WIRELINE
STATUS:          TRUE
TOOL #0:
NAME:            FROM__BCS
DESCRIPTION:     OH WIRELINE
TRADEMARK-NAME:  FROM  BCS
GENERIC-NAME:    OH WIRELINE
STATUS:          TRUE
TOOL #0:
NAME:            FROM__CDN
DESCRIPTION:     OH WIRELINE
TRADEMARK-NAME:  FROM  CDN
GENERIC-NAME:    OH WIRELINE
STATUS:          TRUE
# 
~A       DEPTH           CALI           DRHO           DRHO             DT             GR             GR            ILD            ILM            ITT           NPHI           NPHI           RHOB           RHOB           RLAT            RLN             SP 
# ...
    1730.80680       248.9200    -999.250000       0.020000       203.4121      -999.2500        46.6000        56.8850        61.9440         0.0000      -999.2500         7.0700      -999.2500         2.4920        56.4940        56.4940        55.3000
    1730.95920       249.4280    -999.250000       0.027000       203.7402      -999.2500        45.5000        57.5440        64.1210         0.0000      -999.2500         6.7500      -999.2500         2.5080        61.3760        61.3760        55.8000
    1731.11160       250.1900    -999.250000       0.033000       205.3806      -999.2500        45.9000        56.8850        63.6800         0.0000      -999.2500         7.0300      -999.2500         2.5150        64.4170        64.4170        55.9000
    1731.26400       250.6980    -999.250000       0.037000       207.6772      -999.2500        47.7000        56.6240        61.9440         0.0000      -999.2500         7.7800      -999.2500         2.5100        63.6800        63.6800        56.8000
    1731.41640       251.7140    -999.250000       0.038000       210.6299      -999.2500        48.2000        56.2340        58.3450         0.0000      -999.2500         8.5700      -999.2500         2.4940        60.6740        60.6740        57.4000
    1731.56880       252.2220    -999.250000       0.035000       212.9265      -999.2500        47.0000        55.2080        54.9540         0.0000      -999.2500         9.0300      -999.2500         2.4710        56.7540        56.7540        58.5000
    1731.72120       253.2380    -999.250000       0.032000       212.5984      -999.2500        47.1000        55.2080        54.0750         0.0000      -999.2500         8.8800      -999.2500         2.4540        51.8800        51.8800        58.9000
    1731.87360       254.2540    -999.250000       0.031000       210.3019      -999.2500        48.2000        55.8470        54.0750         0.0000      -999.2500         8.2000      -999.2500         2.4490        47.4240        47.4240        59.0000
    1732.02600       254.7620    -999.250000       0.028000       206.6929      -999.2500        48.3000        56.8850        56.8850         0.0000      -999.2500         7.2100      -999.2500         2.4520        46.3450        46.3450        59.3000
    1732.17840       255.5240    -999.250000       0.021000       202.4278      -999.2500        46.1000        58.3450        61.9440         0.0000      -999.2500         6.1300      -999.2500         2.4620        51.7610        51.7610        59.8000
    1732.33080       256.0320    -999.250000       0.011000       197.5065      -999.2500        42.8000        60.9540        67.6080         0.0000      -999.2500         5.1400      -999.2500         2.4830        64.7140        64.7140        60.0000
    1732.48320       257.3020    -999.250000       0.002000       192.9134      -999.2500        40.5000        64.5650        74.3020         0.0000      -999.2500         4.4300      -999.2500         2.5120        77.8040        77.8040        61.4000
    1732.63560       258.0640    -999.250000       0.001000       191.6010      -999.2500        38.6000        67.4530        77.2680         0.0000      -999.2500         4.0200      -999.2500         2.5430        98.1750        98.1750        62.6000
    1732.78800       258.3180    -999.250000       0.010000       193.5695      -999.2500        36.9000        71.4500        80.5380         0.0000      -999.2500         3.8500      -999.2500         2.5680       116.6810       116.6810        63.6000
    1732.94040       259.0800    -999.250000       0.027000       196.8504      -999.2500        35.8000        76.0330        82.6040         0.0000      -999.2500         3.9300      -999.2500         2.5820       118.5770       118.5770        64.4000
    1733.09280       259.0800    -999.250000       0.042000       199.8031      -999.2500        36.0000        80.3530        82.6040         0.0000      -999.2500         4.2800      -999.2500         2.5780       110.9180       110.9180        64.7000
    1733.24520       258.8260    -999.250000       0.048000       201.4435      -999.2500        37.5000        83.9460        82.6040         0.0000      -999.2500         4.7700      -999.2500         2.5530       105.6820       105.6820        65.2000
    1733.39760       258.0640    -999.250000       0.045000       199.8031      -999.2500        40.2000        86.8960        80.5380         1.0000      -999.2500         5.1100      -999.2500         2.5220        94.4060        94.4060        66.0000
    1733.55000       258.0640    -999.250000       0.039000       196.5223      -999.2500        42.7000        89.3310        87.7000         0.0000      -999.2500         5.0500      -999.2500         2.5010        88.1050        88.1050        66.9000
    1733.70240       258.0640    -999.250000       0.037000       192.5853      -999.2500        43.2000        92.8970        96.3830         0.0000      -999.2500         4.6400      -999.2500         2.5000        98.8550        98.8550        67.6000
    1733.85480       258.0640    -999.250000       0.040000       187.6640      -999.2500        42.6000        94.6240       102.5650         0.0000      -999.2500         4.2100      -999.2500         2.5150       114.2880       114.2880        69.2000
    1734.00720       259.5880    -999.250000       0.041000       184.3832      -999.2500        43.2000       104.9540       110.6620         0.0000      -999.2500         3.8300      -999.2500         2.5350       136.7730       136.7730        70.8000
    1734.15960       261.6200    -999.250000       0.036000       182.4147      -999.2500        46.0000       116.4130       130.0170         0.0000      -999.2500         3.4100      -999.2500         2.5560       175.7920       175.7920        71.9000
    1734.31200       264.4140    -999.250000       0.023000       182.0866      -999.2500        47.8000       117.7610       162.5550         0.0000      -999.2500         3.0000      -999.2500         2.5790       183.2320       183.2320        73.1000
    1734.46440       265.1760    -999.250000       0.008000       184.7113      -999.2500        45.1000       116.4130       168.2670         0.0000      -999.2500         2.8900      -999.2500         2.6000       170.6080       170.6080        74.6000
    1734.61680       265.1760    -999.250000      -0.007000       190.6168      -999.2500        40.4000       100.6930       137.4040         0.0000      -999.2500         2.9500      -999.2500         2.6110       151.7050       151.7050        76.2000
    1734.76920       270.5100    -999.250000      -0.017000       197.1785      -999.2500        39.8000        83.1760       100.4620         0.0000      -999.2500         3.3800      -999.2500         2.6060       119.6740       119.6740        77.4000
    1734.92160       273.8120    -999.250000      -0.022000       203.7402      -999.2500        47.4000        67.9200        65.7660         0.0000      -999.2500         4.4600      -999.2500         2.5950        69.0240        69.0240        78.8000
    1735.07400       279.9080    -999.250000      -0.021000       210.3019      -999.2500        62.1000        57.5440        44.5660         0.0000      -999.2500         6.2000      -999.2500         2.5910        45.2900        45.2900        79.9000
    1735.22640       273.3040    -999.250000      -0.017000       214.2389      -999.2500        79.0000        48.9780        36.3080         0.0000      -999.2500         8.2400      -999.2500         2.5970        35.4810        35.4810        80.8000
    1735.37880       274.8280    -999.250000      -0.014000       215.2231      -999.2500        92.5000        42.3640        32.1370         0.0000      -999.2500         9.6300      -999.2500         2.6060        29.9920        29.9920        81.9000
    1735.53120       276.0980    -999.250000      -0.015000       215.5512      -999.2500       101.3000        37.9310        29.5800         0.0000      -999.2500        10.3500      -999.2500         2.6100        27.4790        27.4790        82.7000
