~Version Information Block
VERS .                 2.00:  CWLS LOG ASCII STANDARD - VERSION 2.00
WRAP .                   NO:  One line per depth step
~Well Information Block
#MNEM.UNIT        Data Type   Information
#---------- ----------------  -----------
STRT .M          1048.05480:  START DEPTH
STOP .M          2676.90600:  STOP DEPTH
STEP .M             0.15240:  STEP
NULL .              -999.25:  NULL VALUE
COMP .                     :  COMPANY
WELL .            1-CA-3-PR:  WELL
FLD  .                     :  FIELD
LOC  .                     :  LOCATION
CTRY .                     :  COUNTRY
STAT .                     :  STATE
CNTY .                     :  COUNTY
SRVC .                     :  SERVICE COMPANY
DATE .                     :  DATE
API  .                     :  API NUMBER
UWI  .                     :  UNIQUE WELL ID
~Curve Information Block
#MNEM.UNIT         API CODE   Curve Description
#---------- ----------------  -----------------
DEPTH.M                    :  INDEX503
CALI .MM                   :  Caliper
DRHO .G/C3                 :  Density Correction
DRHO .G/C3                 :  Density Correction
DT   .US/M                 :  Sonic Transit Time (Slowness)
GR   .GAPI                 :  Gamma Ray
GR   .GAPI                 :  Gamma Ray
ILD  .OHMM                 :  Deep induction resistivity
ILM  .OHMM                 :  Medium induction resistivity
ITT  .                     :  Sonic Transit Time (Slowness)
NPHI .%                    :  Neutron Porosity
NPHI .%                    :  Neutron Porosity
RHOB .G/C3                 :  Bulk Density
RHOB .G/C3                 :  Bulk Density
RLAT .OHMM                 :  Laterolog 3 resistivity
RLN  .OHMM                 :  copy of Laterolog 3 resistivity (RLAT)
SP   .MV                   :  Spontaneous potential
~Parameter Information Block
#MNEM.UNIT            Value   Description
#---------- ----------------  -----------
BS1  .              17 1/2":  Bit size 1
BS2  .              12 1/4":  Bit size 2
BS3  .                81 2/:  Bit size 3
CS1  .              13 3/8":  Casing shoe 1 - Casing size
CS2  .               9 5/8":  Casing shoe 2 - Casing size
CS3  .               5 1/2":  Casing shoe 3 - Casing size
CUR_INT_BOT.M            2676.906:  
EDF  .M                 532:  Elevation of Drill Floor
EGL  .M               526.2:  Elevation of ground level
EKB  .M               532.3:  
QCCD .                 high:  Quality level of the Log data
QCCO .                     :  Company responsible for the Log quality control
QCDT .           1999/01/13:  Date of the Log quality control
QCRM .     carregado por Bucheb:  Comments on the Log quality
QCST .                final:  Status of the Log quality
TAPE_NAME.     1CA__0003__PR_1CA__0003__PR.dlis:  
PROJECT.             Mestrado:  
SET  .                 WIRE:  
~Other Information Block
REMARKS:
R1: VIDE DEMAIS ATRIBUTOS DE CABECALHO (LOG HEADER) NO FILE CORRESPONDENTE

R1: VIDE DEMAIS ATRIBUTOS DE CABECALHO (LOG HEADER) NO FILE CORRESPONDENTE

R1: VIDE DEMAIS ATRIBUTOS DE CABECALHO (LOG HEADER) NO FILE CORRESPONDENTE

TOOL_TABLE:
TOOL #0:
NAME:            FROM__DIL
DESCRIPTION:     OH WIRELINE
TRADEMARK-NAME:  FROM  DIL
GENERIC-NAME:    OH WIRELINE
STATUS:          TRUE
TOOL #0:
NAME:            FROM__BCS
DESCRIPTION:     OH WIRELINE
TRADEMARK-NAME:  FROM  BCS
GENERIC-NAME:    OH WIRELINE
STATUS:          TRUE
TOOL #0:
NAME:            FROM__CDN
DESCRIPTION:     OH WIRELINE
TRADEMARK-NAME:  FROM  CDN
GENERIC-NAME:    OH WIRELINE
STATUS:          TRUE
# 
~A       DEPTH           CALI           DRHO           DRHO             DT             GR             GR            ILD            ILM            ITT           NPHI           NPHI           RHOB           RHOB           RLAT            RLN             SP 
# ...
    1872.23400       228.6000    -999.250000      -0.052000       164.6982      -999.2500        36.7000    100000.0000    100000.0000         0.0000      -999.2500         7.4800      -999.2500         2.9000      1832.3149      1832.3149        46.6000
    1872.38640       229.6160    -999.250000      -0.058000       164.0420      -999.2500        38.6000    100000.0000    100000.0000         0.0000      -999.2500         7.6600      -999.2500         2.9000      1909.8530      1909.8530        46.8000
    1872.53880       228.6000    -999.250000      -0.045000       164.0420      -999.2500        40.5000    100000.0000    100000.0000         0.0000      -999.2500         7.8200      -999.2500         2.9130      1981.5281      1981.5281        45.3000
    1872.69120       228.6000    -999.250000      -0.014000       164.0420      -999.2500        41.0000    100000.0000    100000.0000         0.0000      -999.2500         7.8600      -999.2500         2.9330      1981.5281      1981.5281        44.4000
    1872.84360       228.6000    -999.250000       0.017000       164.3701      -999.2500        40.4000    100000.0000    100000.0000         0.0000      -999.2500         7.9200      -999.2500         2.9430      1981.5281      1981.5281        44.2000
    1872.99600       228.0920    -999.250000       0.024000       164.0420      -999.2500        39.4000    100000.0000    100000.0000         0.0000      -999.2500         8.0000      -999.2500         2.9290      1981.5281      1981.5281        44.4000
    1873.14840       228.0920    -999.250000       0.000000       164.0420      -999.2500        38.9000    100000.0000    100000.0000         0.0000      -999.2500         8.0400      -999.2500         2.9010      1981.5281      1981.5281        44.8000
    1873.30080       228.0920    -999.250000      -0.034000       164.3701      -999.2500        38.4000    100000.0000    100000.0000         0.0000      -999.2500         7.9500      -999.2500         2.8820      1981.5281      1981.5281        44.4000
    1873.45320       228.0920    -999.250000      -0.055000       164.3701      -999.2500        38.1000    100000.0000    100000.0000         0.0000      -999.2500         7.7500      -999.2500         2.8810      1981.5281      1981.5281        42.7000
    1873.60560       228.0920    -999.250000      -0.061000       164.6982      -999.2500        38.5000    100000.0000    100000.0000         0.0000      -999.2500         7.5700      -999.2500         2.8820      1981.5281      1981.5281        41.9000
    1873.75800       228.0920    -999.250000      -0.063000       164.3701      -999.2500        39.0000    100000.0000    100000.0000         0.0000      -999.2500         7.5900      -999.2500         2.8730      1981.5281      1981.5281        43.0000
    1873.91040       228.0920    -999.250000      -0.063000       164.0420      -999.2500        38.9000    100000.0000    100000.0000         0.0000      -999.2500         7.8100      -999.2500         2.8640      1981.5281      1981.5281        42.8000
    1874.06280       228.0920    -999.250000      -0.061000       164.0420      -999.2500        38.8000    100000.0000    100000.0000         0.0000      -999.2500         8.0300      -999.2500         2.8680      1981.5281      1981.5281        40.6000
    1874.21520       227.8380    -999.250000      -0.061000       164.0420      -999.2500        39.3000    100000.0000    100000.0000         0.0000      -999.2500         8.1000      -999.2500         2.8810      1981.5281      1981.5281        40.3000
    1874.36760       227.8380    -999.250000      -0.061000       163.7139      -999.2500        39.9000    100000.0000    100000.0000         0.0000      -999.2500         7.9500      -999.2500         2.8910      1981.5281      1981.5281        42.0000
    1874.52000       227.5840    -999.250000      -0.058000       163.3858      -999.2500        38.9000    100000.0000    100000.0000         0.0000      -999.2500         7.6300      -999.2500         2.8970      1981.5281      1981.5281        42.4000
    1874.67240       227.5840    -999.250000      -0.050000       162.7297      -999.2500        36.8000    100000.0000    100000.0000         0.0000      -999.2500         7.3400      -999.2500         2.9030      1981.5281      1981.5281        42.3000
    1874.82480       227.5840    -999.250000      -0.036000       163.0577      -999.2500        35.3000    100000.0000    100000.0000         0.0000      -999.2500         7.1600      -999.2500         2.9110      1981.5281      1981.5281        41.1000
    1874.97720       227.5840    -999.250000      -0.015000       163.7139      -999.2500        35.5000    100000.0000    100000.0000         0.0000      -999.2500         7.2000      -999.2500         2.9180      1981.5281      1981.5281        40.7000
    1875.12960       227.8380    -999.250000       0.013000       164.0420      -999.2500        37.3000    100000.0000    100000.0000         0.0000      -999.2500         7.3400      -999.2500         2.9200      1981.5281      1981.5281        42.3000
    1875.28200       227.8380    -999.250000       0.032000       164.0420      -999.2500        39.8000    100000.0000    100000.0000         0.0000      -999.2500         7.4500      -999.2500         2.9130      1981.5281      1981.5281        41.5000
    1875.43440       227.8380    -999.250000       0.022000       164.0420      -999.2500        40.8000    100000.0000    100000.0000         0.0000      -999.2500         7.4300      -999.2500         2.8980      1981.5281      1981.5281        40.7000
    1875.58680       227.8380    -999.250000      -0.008000       164.3701      -999.2500        39.5000    100000.0000    100000.0000         0.0000      -999.2500         7.3000      -999.2500         2.8860      1981.5281      1981.5281        41.9000
    1875.73920       228.0920    -999.250000      -0.029000       165.0263      -999.2500        37.9000    100000.0000    100000.0000         0.0000      -999.2500         7.2100      -999.2500         2.8860      1981.5281      1981.5281        42.5000
    1875.89160       228.0920    -999.250000      -0.015000       164.3701      -999.2500        37.2000    100000.0000    100000.0000         0.0000      -999.2500         7.2100      -999.2500         2.8970      1981.5281      1981.5281        42.7000
    1876.04400       227.8380    -999.250000       0.021000       164.0420      -999.2500        37.7000    100000.0000    100000.0000         0.0000      -999.2500         7.1400      -999.2500         2.9040      1981.5281      1981.5281        41.4000
    1876.19640       228.0920    -999.250000       0.044000       164.0420      -999.2500        39.3000    100000.0000    100000.0000         0.0000      -999.2500         6.9900      -999.2500         2.8940      1981.5281      1981.5281        40.2000
    1876.34880       228.6000    -999.250000       0.031000       164.0420      -999.2500        40.6000    100000.0000    100000.0000         0.0000      -999.2500         6.9000      -999.2500         2.8720      1981.5281      1981.5281        40.6000
    1876.50120       228.6000    -999.250000      -0.005000       164.0420      -999.2500        40.3000    100000.0000    100000.0000         0.0000      -999.2500         6.9900      -999.2500         2.8570      1981.5281      1981.5281        40.6000
    1876.65360       228.8540    -999.250000      -0.035000       164.0420      -999.2500        38.4000    100000.0000    100000.0000         0.0000      -999.2500         7.1700      -999.2500         2.8650      1981.5281      1981.5281        41.3000
    1876.80600       229.6160    -999.250000      -0.044000       164.0420      -999.2500        37.1000    100000.0000    100000.0000         0.0000      -999.2500         7.2500      -999.2500         2.8870      1981.5281      1981.5281        41.7000
    1876.95840       229.8700    -999.250000      -0.039000       163.3858      -999.2500        37.3000    100000.0000    100000.0000         0.0000      -999.2500         7.0900      -999.2500         2.9040      1981.5281      1981.5281        41.9000
