~Version Information Block
VERS .                 2.00:  CWLS LOG ASCII STANDARD - VERSION 2.00
WRAP .                   NO:  One line per depth step
~Well Information Block
#MNEM.UNIT        Data Type   Information
#---------- ----------------  -----------
STRT .M          1048.05480:  START DEPTH
STOP .M          2676.90600:  STOP DEPTH
STEP .M             0.15240:  STEP
NULL .              -999.25:  NULL VALUE
COMP .                     :  COMPANY
WELL .            1-CA-3-PR:  WELL
FLD  .                     :  FIELD
LOC  .                     :  LOCATION
CTRY .                     :  COUNTRY
STAT .                     :  STATE
CNTY .                     :  COUNTY
SRVC .                     :  SERVICE COMPANY
DATE .                     :  DATE
API  .                     :  API NUMBER
UWI  .                     :  UNIQUE WELL ID
~Curve Information Block
#MNEM.UNIT         API CODE   Curve Description
#---------- ----------------  -----------------
DEPTH.M                    :  INDEX503
CALI .MM                   :  Caliper
DRHO .G/C3                 :  Density Correction
DRHO .G/C3                 :  Density Correction
DT   .US/M                 :  Sonic Transit Time (Slowness)
GR   .GAPI                 :  Gamma Ray
GR   .GAPI                 :  Gamma Ray
ILD  .OHMM                 :  Deep induction resistivity
ILM  .OHMM                 :  Medium induction resistivity
ITT  .                     :  Sonic Transit Time (Slowness)
NPHI .%                    :  Neutron Porosity
NPHI .%                    :  Neutron Porosity
RHOB .G/C3                 :  Bulk Density
RHOB .G/C3                 :  Bulk Density
RLAT .OHMM                 :  Laterolog 3 resistivity
RLN  .OHMM                 :  copy of Laterolog 3 resistivity (RLAT)
SP   .MV                   :  Spontaneous potential
~Parameter Information Block
#MNEM.UNIT            Value   Description
#---------- ----------------  -----------
BS1  .              17 1/2":  Bit size 1
BS2  .              12 1/4":  Bit size 2
BS3  .                81 2/:  Bit size 3
CS1  .              13 3/8":  Casing shoe 1 - Casing size
CS2  .               9 5/8":  Casing shoe 2 - Casing size
CS3  .               5 1/2":  Casing shoe 3 - Casing size
CUR_INT_BOT.M            2676.906:  
EDF  .M                 532:  Elevation of Drill Floor
EGL  .M               526.2:  Elevation of ground level
EKB  .M               532.3:  
QCCD .                 high:  Quality level of the Log data
QCCO .                     :  Company responsible for the Log quality control
QCDT .           1999/01/13:  Date of the Log quality control
QCRM .     carregado por Bucheb:  Comments on the Log quality
QCST .                final:  Status of the Log quality
TAPE_NAME.     1CA__0003__PR_1CA__0003__PR.dlis:  
PROJECT.             Mestrado:  
SET  .                 WIRE:  
~Other Information Block
REMARKS:
R1: VIDE DEMAIS ATRIBUTOS DE CABECALHO (LOG HEADER) NO FILE CORRESPONDENTE

R1: VIDE DEMAIS ATRIBUTOS DE CABECALHO (LOG HEADER) NO FILE CORRESPONDENTE

R1: VIDE DEMAIS ATRIBUTOS DE CABECALHO (LOG HEADER) NO FILE CORRESPONDENTE

TOOL_TABLE:
TOOL #0:
NAME:            FROM__DIL
DESCRIPTION:     OH WIRELINE
TRADEMARK-NAME:  FROM  DIL
GENERIC-NAME:    OH WIRELINE
STATUS:          TRUE
TOOL #0:
NAME:            FROM__BCS
DESCRIPTION:     OH WIRELINE
TRADEMARK-NAME:  FROM  BCS
GENERIC-NAME:    OH WIRELINE
STATUS:          TRUE
TOOL #0:
NAME:            FROM__CDN
DESCRIPTION:     OH WIRELINE
TRADEMARK-NAME:  FROM  CDN
GENERIC-NAME:    OH WIRELINE
STATUS:          TRUE
# 
~A       DEPTH           CALI           DRHO           DRHO             DT             GR             GR            ILD            ILM            ITT           NPHI           NPHI           RHOB           RHOB           RLAT            RLN             SP 
# ...
    2379.42120       218.6940    -999.250000      -0.046000       168.6351      -999.2500        33.3000       494.3110      3243.3931         0.0000      -999.2500        11.6600      -999.2500         2.9220       321.3660       321.3660        76.3000
    2379.57360       218.6940    -999.250000      -0.039000       167.9790      -999.2500        34.8000       395.3660      2432.2026         0.0000      -999.2500        11.8500      -999.2500         2.9170       291.0710       291.0710        76.6000
    2379.72600       217.6780    -999.250000      -0.029000       167.3228      -999.2500        33.4000       365.5950      1389.9519         0.0000      -999.2500        11.4000      -999.2500         2.9120       264.2410       264.2410        76.6000
    2379.87840       215.9000    -999.250000      -0.014000       167.3228      -999.2500        30.8000       340.4080       812.8301         0.0000      -999.2500        10.7500      -999.2500         2.9080       242.6610       242.6610        76.6000
    2380.03080       215.9000    -999.250000       0.014000       167.3228      -999.2500        29.3000       289.7339       574.1160         0.0000      -999.2500        10.4900      -999.2500         2.9070       226.4650       226.4650        76.4000
    2380.18320       216.1540    -999.250000       0.052000       166.9947      -999.2500        29.5000       281.8379       609.5359         0.0000      -999.2500        10.7700      -999.2500         2.9030       209.4110       209.4110        76.2000
    2380.33560       216.6620    -999.250000       0.074000       166.3386      -999.2500        30.2000       259.4180       696.6270         0.0000      -999.2500        11.3900      -999.2500         2.8880       190.5460       190.5460        75.8000
    2380.48800       217.6780    -999.250000       0.063000       165.3543      -999.2500        30.9000       229.0870       812.8301         0.0000      -999.2500        12.0300      -999.2500         2.8660       175.3880       175.3880        75.4000
    2380.64040       218.6940    -999.250000       0.031000       165.3543      -999.2500        32.7000       192.7520       696.6270         0.0000      -999.2500        12.5600      -999.2500         2.8520       161.8080       161.8080        75.1000
    2380.79280       218.6940    -999.250000       0.009000       166.0105      -999.2500        34.7000       155.5960       389.9409         0.0000      -999.2500        12.9500      -999.2500         2.8550       144.5440       144.5440        75.1000
    2380.94520       218.6940    -999.250000       0.012000       166.3386      -999.2500        35.1000       130.6170       278.6121         0.0000      -999.2500        13.1400      -999.2500         2.8690       127.0580       127.0580        75.1000
    2381.09760       218.6940    -999.250000       0.029000       166.3386      -999.2500        32.8000       117.7610       187.4990         0.0000      -999.2500        13.1000      -999.2500         2.8850       112.9800       112.9800        75.0000
    2381.25000       220.2180    -999.250000       0.048000       167.3228      -999.2500        29.5000       109.9010       162.5550         0.0000      -999.2500        12.7500      -999.2500         2.9020        97.0510        97.0510        75.2000
    2381.40240       220.4720    -999.250000       0.066000       169.6194      -999.2500        28.5000       102.8020       149.9680         0.0000      -999.2500        12.1600      -999.2500         2.9080        78.8860        78.8860        75.2000
    2381.55480       220.2180    -999.250000       0.074000       172.5722      -999.2500        29.8000        99.5400       162.5550         1.0000      -999.2500        11.5200      -999.2500         2.8930        66.2220        66.2220        75.1000
    2381.70720       228.8540    -999.250000       0.069000       174.8688      -999.2500        31.7000        94.6240       184.0770         0.0000      -999.2500        10.9500      -999.2500         2.8660        64.2690        64.2690        74.3000
    2381.85960       226.0600    -999.250000       0.067000       175.1968      -999.2500        32.5000        85.5070       237.6840         0.0000      -999.2500        10.4900      -999.2500         2.8550        62.0870        62.0870        73.7000
    2382.01200       229.8700    -999.250000       0.077000       174.2126      -999.2500        32.1000        80.3530       190.9850         0.0000      -999.2500        10.2200      -999.2500         2.8710        61.0940        61.0940        73.3000
    2382.16440       223.0120    -999.250000       0.082000       174.5407      -999.2500        31.4000        76.5600       130.0170         0.0000      -999.2500        10.2800      -999.2500         2.8920        61.3760        61.3760        73.2000
    2382.31680       225.8060    -999.250000       0.060000       175.5249      -999.2500        31.0000        69.3430       101.3910         0.0000      -999.2500        10.3000      -999.2500         2.8960        60.8140        60.8140        73.0000
    2382.46920       227.5840    -999.250000       0.018000       174.5407      -999.2500        30.5000        62.9510        85.5070         0.0000      -999.2500        10.3300      -999.2500         2.8900        57.6770        57.6770        72.7000
    2382.62160       236.4740    -999.250000      -0.012000       172.5722      -999.2500        29.6000        56.6240        72.1110         0.0000      -999.2500        10.0000      -999.2500         2.8900        56.8850        56.8850        72.3000
    2382.77400       240.2840    -999.250000      -0.015000       171.2598      -999.2500        29.8000        46.9890        61.2350         0.0000      -999.2500         9.5100      -999.2500         2.8970        54.9540        54.9540        71.8000
    2382.92640       245.8720    -999.250000       0.008000       171.2598      -999.2500        31.7000        38.1940        52.6020         0.0000      -999.2500         9.0200      -999.2500         2.9110        50.3500        50.3500        71.4000
    2383.07880       216.6620    -999.250000       0.049000       172.2441      -999.2500        33.4000        34.0410        43.6520         0.0000      -999.2500         8.7900      -999.2500         2.9370        44.4630        44.4630        70.4000
    2383.23120       214.6300    -999.250000       0.081000       173.5564      -999.2500        33.0000        31.9150        41.5910         0.0000      -999.2500         8.7100      -999.2500         2.9610        40.0870        40.0870        69.6000
    2383.38360       214.6300    -999.250000       0.075000       173.8845      -999.2500        31.8000        29.3770        42.0730         0.0000      -999.2500         8.8100      -999.2500         2.9580        38.3710        38.3710        68.8000
    2383.53600       214.1220    -999.250000       0.032000       170.9318      -999.2500        30.4000        27.4790        44.7710         0.0000      -999.2500         8.4600      -999.2500         2.9290        39.9940        39.9940        68.2000
    2383.68840       229.6160    -999.250000      -0.018000       167.3228      -999.2500        28.3000        25.7630        50.4660         0.0000      -999.2500         8.5200      -999.2500         2.8990        44.9780        44.9780        68.2000
    2383.84080       228.0920    -999.250000      -0.043000       165.3543      -999.2500        26.6000        24.6040        61.2350         0.0000      -999.2500         8.3900      -999.2500         2.8850        56.3640        56.3640        68.2000
    2383.99320       231.3940    -999.250000      -0.027000       164.0420      -999.2500        27.7000        22.3870        71.1210         0.0000      -999.2500         7.8700      -999.2500         2.8880        70.9580        70.9580        68.8000
    2384.14560       233.9340    -999.250000       0.034000       163.7139      -999.2500        31.6000        19.6340        61.9440         0.0000      -999.2500         7.2800      -999.2500         2.8960        82.6040        82.6040        69.2000
