~Version Information Block
VERS .                 2.00:  CWLS LOG ASCII STANDARD - VERSION 2.00
WRAP .                   NO:  One line per depth step
~Well Information Block
#MNEM.UNIT        Data Type   Information
#---------- ----------------  -----------
STRT .M          1048.05480:  START DEPTH
STOP .M          2676.90600:  STOP DEPTH
STEP .M             0.15240:  STEP
NULL .              -999.25:  NULL VALUE
COMP .                     :  COMPANY
WELL .            1-CA-3-PR:  WELL
FLD  .                     :  FIELD
LOC  .                     :  LOCATION
CTRY .                     :  COUNTRY
STAT .                     :  STATE
CNTY .                     :  COUNTY
SRVC .                     :  SERVICE COMPANY
DATE .                     :  DATE
API  .                     :  API NUMBER
UWI  .                     :  UNIQUE WELL ID
~Curve Information Block
#MNEM.UNIT         API CODE   Curve Description
#---------- ----------------  -----------------
DEPTH.M                    :  INDEX503
CALI .MM                   :  Caliper
DRHO .G/C3                 :  Density Correction
DRHO .G/C3                 :  Density Correction
DT   .US/M                 :  Sonic Transit Time (Slowness)
GR   .GAPI                 :  Gamma Ray
GR   .GAPI                 :  Gamma Ray
ILD  .OHMM                 :  Deep induction resistivity
ILM  .OHMM                 :  Medium induction resistivity
ITT  .                     :  Sonic Transit Time (Slowness)
NPHI .%                    :  Neutron Porosity
NPHI .%                    :  Neutron Porosity
RHOB .G/C3                 :  Bulk Density
RHOB .G/C3                 :  Bulk Density
RLAT .OHMM                 :  Laterolog 3 resistivity
RLN  .OHMM                 :  copy of Laterolog 3 resistivity (RLAT)
SP   .MV                   :  Spontaneous potential
~Parameter Information Block
#MNEM.UNIT            Value   Description
#---------- ----------------  -----------
BS1  .              17 1/2":  Bit size 1
BS2  .              12 1/4":  Bit size 2
BS3  .                81 2/:  Bit size 3
CS1  .              13 3/8":  Casing shoe 1 - Casing size
CS2  .               9 5/8":  Casing shoe 2 - Casing size
CS3  .               5 1/2":  Casing shoe 3 - Casing size
CUR_INT_BOT.M            2676.906:  
EDF  .M                 532:  Elevation of Drill Floor
EGL  .M               526.2:  Elevation of ground level
EKB  .M               532.3:  
QCCD .                 high:  Quality level of the Log data
QCCO .                     :  Company responsible for the Log quality control
QCDT .           1999/01/13:  Date of the Log quality control
QCRM .     carregado por Bucheb:  Comments on the Log quality
QCST .                final:  Status of the Log quality
TAPE_NAME.     1CA__0003__PR_1CA__0003__PR.dlis:  
PROJECT.             Mestrado:  
SET  .                 WIRE:  
~Other Information Block
REMARKS:
R1: VIDE DEMAIS ATRIBUTOS DE CABECALHO (LOG HEADER) NO FILE CORRESPONDENTE

R1: VIDE DEMAIS ATRIBUTOS DE CABECALHO (LOG HEADER) NO FILE CORRESPONDENTE

R1: VIDE DEMAIS ATRIBUTOS DE CABECALHO (LOG HEADER) NO FILE CORRESPONDENTE

TOOL_TABLE:
TOOL #0:
NAME:            FROM__DIL
DESCRIPTION:     OH WIRELINE
TRADEMARK-NAME:  FROM  DIL
GENERIC-NAME:    OH WIRELINE
STATUS:          TRUE
TOOL #0:
NAME:            FROM__BCS
DESCRIPTION:     OH WIRELINE
TRADEMARK-NAME:  FROM  BCS
GENERIC-NAME:    OH WIRELINE
STATUS:          TRUE
TOOL #0:
NAME:            FROM__CDN
DESCRIPTION:     OH WIRELINE
TRADEMARK-NAME:  FROM  CDN
GENERIC-NAME:    OH WIRELINE
STATUS:          TRUE
# 
~A       DEPTH           CALI           DRHO           DRHO             DT             GR             GR            ILD            ILM            ITT           NPHI           NPHI           RHOB           RHOB           RLAT            RLN             SP 
# ...
    2594.00040       239.5220    -999.250000       0.217000       227.3622      -999.2500       106.4000       185.3530       113.2400         0.0000      -999.2500        24.8500      -999.2500         2.6380        84.3330        84.3330        89.5000
    2594.15280       239.2680    -999.250000       0.234000       228.0184      -999.2500       106.5000       204.6440       121.8990         1.0000      -999.2500        24.6900      -999.2500         2.6380        85.9010        85.9010        89.6000
    2594.30520       226.5680    -999.250000       0.241000       227.6903      -999.2500       107.3000       266.0720       116.1450         0.0000      -999.2500        24.9000      -999.2500         2.6310        86.2980        86.2980        89.5000
    2594.45760       229.8700    -999.250000       0.205000       227.6903      -999.2500       105.9000       365.5950       110.6620         0.0000      -999.2500        26.0900      -999.2500         2.6160        89.7430        89.7430        89.3000
    2594.61000       225.5520    -999.250000       0.126000       228.6745      -999.2500       103.4000       411.1499       118.8500         0.0000      -999.2500        27.7900      -999.2500         2.6160        87.4980        87.4980        89.3000
    2594.76240       223.5200    -999.250000       0.042000       229.0026      -999.2500       103.8000       380.1890       120.2270         0.0000      -999.2500        28.6200      -999.2500         2.6450        81.0960        81.0960        89.8000
    2594.91480       227.5840    -999.250000      -0.011000       228.3465      -999.2500       106.8000       448.7461       120.2270         0.0000      -999.2500        28.4000      -999.2500         2.6830        76.5600        76.5600        89.9000
    2595.06720       218.6940    -999.250000      -0.030000       228.3465      -999.2500       109.4000       365.5950       116.1450         0.0000      -999.2500        26.9000      -999.2500         2.6980        72.9460        72.9460        90.4000
    2595.21960       217.6780    -999.250000      -0.037000       229.0026      -999.2500       109.1000       266.0720       103.7530         0.0000      -999.2500        24.9900      -999.2500         2.6900        66.2220        66.2220        90.7000
    2595.37200       217.6780    -999.250000      -0.044000       229.6588      -999.2500       107.1000       218.7760        97.4990         0.0000      -999.2500        23.8000      -999.2500         2.6780        68.0770        68.0770        90.6000
    2595.52440       216.9160    -999.250000      -0.052000       229.6588      -999.2500       107.0000       204.6440        96.3830         0.0000      -999.2500        23.9800      -999.2500         2.6710        76.0330        76.0330        91.0000
    2595.67680       215.9000    -999.250000      -0.057000       229.3307      -999.2500       110.6000       218.7760        93.7560         0.0000      -999.2500        25.8300      -999.2500         2.6670        87.2970        87.2970        90.9000
    2595.82920       214.6300    -999.250000      -0.057000       229.0026      -999.2500       115.0000       252.3480        96.3830         0.0000      -999.2500        27.8100      -999.2500         2.6660        97.4990        97.4990        90.7000
    2595.98160       216.6620    -999.250000      -0.055000       229.3307      -999.2500       116.9000       308.3191       103.7530         0.0000      -999.2500        28.5600      -999.2500         2.6670       103.9920       103.9920        91.0000
    2596.13400       216.6620    -999.250000      -0.052000       229.3307      -999.2500       115.8000       380.1890       108.3930         0.0000      -999.2500        27.7800      -999.2500         2.6670       108.3930       108.3930        91.1000
    2596.28640       216.6620    -999.250000      -0.049000       229.3307      -999.2500       114.9000       380.1890       121.8990         0.0000      -999.2500        25.8900      -999.2500         2.6680       111.1730       111.1730        91.3000
    2596.43880       216.6620    -999.250000      -0.048000       229.3307      -999.2500       115.6000       395.3660       113.2400         0.0000      -999.2500        23.8400      -999.2500         2.6680       112.7200       112.7200        91.4000
    2596.59120       216.9160    -999.250000      -0.051000       229.3307      -999.2500       115.8000       448.7461       114.5510         0.0000      -999.2500        22.4700      -999.2500         2.6670       115.3450       115.3450        91.5000
    2596.74360       216.9160    -999.250000      -0.055000       229.6588      -999.2500       114.0000       411.1499       120.2270         0.0000      -999.2500        22.5800      -999.2500         2.6730       119.9500       119.9500        91.3000
    2596.89600       216.9160    -999.250000      -0.054000       229.9869      -999.2500       111.2000       395.3660       118.8500         0.0000      -999.2500        24.2800      -999.2500         2.6830       118.0320       118.0320        90.9000
    2597.04840       216.9160    -999.250000      -0.044000       229.6588      -999.2500       109.4000       429.5359       105.9250         0.0000      -999.2500        26.5300      -999.2500         2.6920       116.1450       116.1450        90.7000
    2597.20080       216.9160    -999.250000      -0.033000       229.6588      -999.2500       109.0000       448.7461       108.3930         0.0000      -999.2500        27.5200      -999.2500         2.6920       116.1450       116.1450        90.3000
    2597.35320       214.6300    -999.250000      -0.031000       229.6588      -999.2500       110.2000       549.5410       131.8260         0.0000      -999.2500        26.7000      -999.2500         2.6820       116.1450       116.1450        90.2000
    2597.50560       214.8840    -999.250000      -0.036000       229.9869      -999.2500       111.7000       618.0161       168.2670         0.0000      -999.2500        25.0500      -999.2500         2.6680       118.5770       118.5770        89.9000
    2597.65800       215.6460    -999.250000      -0.041000       230.9711      -999.2500       113.0000       582.1030       162.5550         0.0000      -999.2500        23.8400      -999.2500         2.6610       121.3390       121.3390        89.7000
    2597.81040       216.1540    -999.250000      -0.043000       231.9554      -999.2500       113.4000       707.9460       152.4050         0.0000      -999.2500        22.9300      -999.2500         2.6650       122.1800       122.1800        89.6000
    2597.96280       217.9320    -999.250000      -0.041000       232.2835      -999.2500       111.9000       762.0791       149.9680         0.0000      -999.2500        21.6100      -999.2500         2.6730       121.0600       121.0600        89.8000
    2598.11520       218.1860    -999.250000      -0.035000       232.6115      -999.2500       110.6000       990.8320       149.9680         0.0000      -999.2500        20.4200      -999.2500         2.6760       118.0320       118.0320        89.9000
    2598.26760       217.9320    -999.250000      -0.031000       232.6115      -999.2500       110.6000      1412.5371       149.9680         0.0000      -999.2500        20.7600      -999.2500         2.6720       113.5010       113.5010        89.6000
    2598.42000       218.1860    -999.250000      -0.030000       232.9396      -999.2500       111.8000      2477.4189       154.8820         1.0000      -999.2500        22.9300      -999.2500         2.6690       110.6620       110.6620        89.4000
    2598.57240       217.9320    -999.250000      -0.033000       233.9239      -999.2500       112.3000      1412.5371       162.5550         0.0000      -999.2500        25.0700      -999.2500         2.6670       108.3930       108.3930        89.2000
    2598.72480       218.1860    -999.250000      -0.036000       235.5643      -999.2500       110.8000      1412.5371       177.4190         0.0000      -999.2500        25.6700      -999.2500         2.6670       104.7130       104.7130        89.2000
