~Version Information Block
VERS .                 2.00:  CWLS LOG ASCII STANDARD - VERSION 2.00
WRAP .                   NO:  One line per depth step
~Well Information Block
#MNEM.UNIT        Data Type   Information
#---------- ----------------  -----------
STRT .M          1048.05480:  START DEPTH
STOP .M          2676.90600:  STOP DEPTH
STEP .M             0.15240:  STEP
NULL .              -999.25:  NULL VALUE
COMP .                     :  COMPANY
WELL .            1-CA-3-PR:  WELL
FLD  .                     :  FIELD
LOC  .                     :  LOCATION
CTRY .                     :  COUNTRY
STAT .                     :  STATE
CNTY .                     :  COUNTY
SRVC .                     :  SERVICE COMPANY
DATE .                     :  DATE
API  .                     :  API NUMBER
UWI  .                     :  UNIQUE WELL ID
~Curve Information Block
#MNEM.UNIT         API CODE   Curve Description
#---------- ----------------  -----------------
DEPTH.M                    :  INDEX503
CALI .MM                   :  Caliper
DRHO .G/C3                 :  Density Correction
DRHO .G/C3                 :  Density Correction
DT   .US/M                 :  Sonic Transit Time (Slowness)
GR   .GAPI                 :  Gamma Ray
GR   .GAPI                 :  Gamma Ray
ILD  .OHMM                 :  Deep induction resistivity
ILM  .OHMM                 :  Medium induction resistivity
ITT  .                     :  Sonic Transit Time (Slowness)
NPHI .%                    :  Neutron Porosity
NPHI .%                    :  Neutron Porosity
RHOB .G/C3                 :  Bulk Density
RHOB .G/C3                 :  Bulk Density
RLAT .OHMM                 :  Laterolog 3 resistivity
RLN  .OHMM                 :  copy of Laterolog 3 resistivity (RLAT)
SP   .MV                   :  Spontaneous potential
~Parameter Information Block
#MNEM.UNIT            Value   Description
#---------- ----------------  -----------
BS1  .              17 1/2":  Bit size 1
BS2  .              12 1/4":  Bit size 2
BS3  .                81 2/:  Bit size 3
CS1  .              13 3/8":  Casing shoe 1 - Casing size
CS2  .               9 5/8":  Casing shoe 2 - Casing size
CS3  .               5 1/2":  Casing shoe 3 - Casing size
CUR_INT_BOT.M            2676.906:  
EDF  .M                 532:  Elevation of Drill Floor
EGL  .M               526.2:  Elevation of ground level
EKB  .M               532.3:  
QCCD .                 high:  Quality level of the Log data
QCCO .                     :  Company responsible for the Log quality control
QCDT .           1999/01/13:  Date of the Log quality control
QCRM .     carregado por Bucheb:  Comments on the Log quality
QCST .                final:  Status of the Log quality
TAPE_NAME.     1CA__0003__PR_1CA__0003__PR.dlis:  
PROJECT.             Mestrado:  
SET  .                 WIRE:  
~Other Information Block
REMARKS:
R1: VIDE DEMAIS ATRIBUTOS DE CABECALHO (LOG HEADER) NO FILE CORRESPONDENTE

R1: VIDE DEMAIS ATRIBUTOS DE CABECALHO (LOG HEADER) NO FILE CORRESPONDENTE

R1: VIDE DEMAIS ATRIBUTOS DE CABECALHO (LOG HEADER) NO FILE CORRESPONDENTE

TOOL_TABLE:
TOOL #0:
NAME:            FROM__DIL
DESCRIPTION:     OH WIRELINE
TRADEMARK-NAME:  FROM  DIL
GENERIC-NAME:    OH WIRELINE
STATUS:          TRUE
TOOL #0:
NAME:            FROM__BCS
DESCRIPTION:     OH WIRELINE
TRADEMARK-NAME:  FROM  BCS
GENERIC-NAME:    OH WIRELINE
STATUS:          TRUE
TOOL #0:
NAME:            FROM__CDN
DESCRIPTION:     OH WIRELINE
TRADEMARK-NAME:  FROM  CDN
GENERIC-NAME:    OH WIRELINE
STATUS:          TRUE
# 
~A       DEPTH           CALI           DRHO           DRHO             DT             GR             GR            ILD            ILM            ITT           NPHI           NPHI           RHOB           RHOB           RLAT            RLN             SP 
# ...
    2667.15240       277.8760    -999.250000       0.182000       217.8477      -999.2500        95.6000        23.3880        22.1310         0.0000      -999.2500         8.2100      -999.2500         2.0250        17.9470        17.9470        45.7000
    2667.30480       282.1940    -999.250000       0.187000       218.5040      -999.2500        68.0000        22.7510        20.5120         0.0000      -999.2500         8.4100      -999.2500         2.0320        17.4980        17.4980        45.7000
    2667.45720       283.9720    -999.250000       0.189000       218.5040      -999.2500        45.2000        22.0290        19.8610         0.0000      -999.2500         8.8600      -999.2500         2.0440        17.4180        17.4180        45.7000
    2667.60960       274.8280    -999.250000       0.191000       218.1759      -999.2500        36.1000        21.8780        20.3240         0.0000      -999.2500         9.2400      -999.2500         2.0650        17.6200        17.6200        45.2000
    2667.76200       251.7140    -999.250000       0.192000       217.1916      -999.2500        34.6000        22.2840        21.1840         0.0000      -999.2500         9.1400      -999.2500         2.0840        18.0720        18.0720        44.8000
    2667.91440       256.0320    -999.250000       0.185000       216.2073      -999.2500        33.6000        22.9090        22.3870         0.0000      -999.2500         8.9600      -999.2500         2.0730        19.0110        19.0110        44.2000
    2668.06680       248.4120    -999.250000       0.164000       215.5512      -999.2500        31.8000        23.1210        23.7680         0.0000      -999.2500         8.5900      -999.2500         2.0150        19.6790        19.6790        43.7000
    2668.21920       250.1900    -999.250000       0.136000       215.5512      -999.2500        30.9000        23.5500        24.2100         0.0000      -999.2500         7.7000      -999.2500         1.9270        19.8150        19.8150        42.6000
    2668.37160       275.3360    -999.250000       0.114000       216.2073      -999.2500        32.8000        23.5500        23.6590         1.0000      -999.2500         7.0800      -999.2500         1.8450        19.1870        19.1870        41.4000
    2668.52400       302.0060    -999.250000       0.106000       216.5354      -999.2500        35.7000        23.0140        22.5940         0.0000      -999.2500         6.7000      -999.2500         1.8000        18.6640        18.6640        40.3000
    2668.67640       305.3080    -999.250000       0.108000       216.8635      -999.2500        36.5000        21.9280        22.3360         0.0000      -999.2500         7.0500      -999.2500         1.7930        17.8240        17.8240        39.7000
    2668.82880       305.3080    -999.250000       0.112000       217.1916      -999.2500        33.9000        20.9890        21.1840         0.0000      -999.2500         7.9100      -999.2500         1.8030        16.9430        16.9430        38.9000
    2668.98120       313.1820    -999.250000       0.112000       218.1759      -999.2500        30.1000        19.9990        19.3200         0.0000      -999.2500         8.7000      -999.2500         1.8120        16.1060        16.1060        39.0000
    2669.13360       321.0560    -999.250000       0.112000       219.8163      -999.2500        27.3000        19.5430        17.8650         0.0000      -999.2500         9.1500      -999.2500         1.8190        15.5960        15.5960        39.1000
    2669.28600       325.3740    -999.250000       0.117000       220.8005      -999.2500        26.1000        19.4980        17.2980         0.0000      -999.2500         9.6700      -999.2500         1.8390        15.3110        15.3110        39.9000
    2669.43840       302.0060    -999.250000       0.131000       221.4567      -999.2500        26.8000        19.4090        18.4080         0.0000      -999.2500        10.2200      -999.2500         1.8800        15.2760        15.2760        41.2000
    2669.59080       298.4500    -999.250000       0.148000       220.8005      -999.2500        31.0000        19.3200        19.8150         0.0000      -999.2500        10.4000      -999.2500         1.9320        15.3820        15.3820        41.9000
    2669.74320       297.4340    -999.250000       0.165000       219.1601      -999.2500        37.0000        19.6790        20.6060         0.0000      -999.2500        10.3500      -999.2500         1.9880        15.9220        15.9220        42.7000
    2669.89560       297.4340    -999.250000       0.179000       217.8477      -999.2500        40.3000        20.1840        21.5280         0.0000      -999.2500        10.0600      -999.2500         2.0360        16.7880        16.7880        43.3000
    2670.04800       262.1280    -999.250000       0.186000       217.1916      -999.2500        39.9000        20.8930        22.2840         0.0000      -999.2500        10.2800      -999.2500         2.0530        17.7010        17.7010        44.6000
    2670.20040       266.9540    -999.250000       0.182000       216.5354      -999.2500        39.3000        21.5280        22.5940         0.0000      -999.2500        10.6300      -999.2500         2.0290        18.4080        18.4080        45.0000
    2670.35280       282.1940    -999.250000       0.171000       215.5512      -999.2500        40.9000        21.6270        22.6460         0.0000      -999.2500        10.6600      -999.2500         1.9930        18.9670        18.9670        45.1000
    2670.50520       289.5600    -999.250000       0.164000       213.9108      -999.2500        43.0000        21.3300        22.3360         0.0000      -999.2500         9.6300      -999.2500         1.9810        19.0550        19.0550        44.6000
    2670.65760       268.9860    -999.250000       0.170000       213.5827      -999.2500        43.2000        20.8930        20.6060         0.0000      -999.2500         8.8600      -999.2500         2.0070        18.1550        18.1550        45.0000
    2670.81000       261.3660    -999.250000       0.186000       215.8793      -999.2500        41.5000        20.4640        18.8800         0.0000      -999.2500         8.6700      -999.2500         2.0570        16.8660        16.8660        45.5000
    2670.96240       263.3980    -999.250000       0.203000       218.8320      -999.2500        38.9000        19.7700        17.9890         0.0000      -999.2500         9.0900      -999.2500         2.1020        15.7760        15.7760        46.2000
    2671.11480       261.6200    -999.250000       0.210000       221.1286      -999.2500        37.3000        18.9670        17.9470         0.0000      -999.2500         9.2700      -999.2500         2.1180        14.9280        14.9280        46.3000
    2671.26720       259.0800    -999.250000       0.207000       223.4252      -999.2500        38.9000        18.3230        17.4180         0.0000      -999.2500         9.1700      -999.2500         2.1060        14.2560        14.2560        46.2000
    2671.41960       265.1760    -999.250000       0.198000       223.7533      -999.2500        43.0000        17.9470        16.7110         0.0000      -999.2500         8.9500      -999.2500         2.0980        14.3550        14.3550        45.6000
    2671.57200       267.9700    -999.250000       0.179000       222.7690      -999.2500        46.2000        17.9890        16.6720         0.0000      -999.2500         8.9200      -999.2500         2.1280        14.7910        14.7910        45.1000
    2671.72440       258.0640    -999.250000       0.140000       221.4567      -999.2500        45.7000        18.6640        17.5390         0.0000      -999.2500         8.9800      -999.2500         2.2070        15.6310        15.6310        44.9000
    2671.87680       207.7720    -999.250000       0.085000       219.4882      -999.2500        43.2000        19.2750        18.9230         0.0000      -999.2500         8.8400      -999.2500         2.3100        16.6720        16.6720        44.5000
