~Version Information Block
VERS .                 2.00:  CWLS LOG ASCII STANDARD - VERSION 2.00
WRAP .                   NO:  One line per depth step
~Well Information Block
#MNEM.UNIT        Data Type   Information
#---------- ----------------  -----------
STRT .M            3485.250:  START DEPTH
STOP .M            5334.750:  STOP DEPTH
STEP .M               0.150:  STEP
NULL .              -999.25:  NULL VALUE
COMP .                     :  COMPANY
WELL .            2-RI-1-PR:  WELL
FLD  .                     :  FIELD
LOC  .                     :  LOCATION
CTRY .                     :  COUNTRY
STAT .                     :  STATE
CNTY .                     :  COUNTY
SRVC .                     :  SERVICE COMPANY
DATE .                     :  DATE
API  .                     :  API NUMBER
UWI  .                     :  UNIQUE WELL ID
~Curve Information Block
#MNEM.UNIT         API CODE   Curve Description
#---------- ----------------  -----------------
DEPTH.M                    :  INDEX5513
CALI .MM                   :  Caliper
CALI .MM                   :  Caliper
DRHO .                     :  Bulk density correction
DT   .US/F                 :  Sonic delta-T
GR   .                     :  Gamma Ray
ILD  .                     :  Deep induction resistivity
ILM  .                     :  Medium induction resistivity
ITT  .                     :  Sonic Transit Time (Slowness)
LLD  .                     :  Deep laterolog resistivity
NPHI .%                    :  Neutron porosity
RHOB .                     :  Bulk density
SP   .                     :  Spontaneous potential
~Parameter Information Block
#MNEM.UNIT            Value   Description
#---------- ----------------  -----------
BS1  .              31 1/2":  Bit size 1
BS2  .              17 1/2":  Bit size 2
BS3  .              12 1/4":  Bit size 3
BSD1 .M                  83:  Total depth 1 measured by driller
BSD2 .M              1463.7:  Total depth 2 measured by driller
BSD3 .M              3491.8:  Total depth 3 measured by driller
CBD1 .M                82.5:  Casing shoe 1 - Driller depth
CBD2 .M              1460.3:  Casing shoe 2 - Driller depth
CBD3 .M              3491.5:  Casing shoe 3 - Driller depth
CS1  .                  20":  Casing shoe 1 - Casing size
CS2  .              13 3/8":  Casing shoe 2 - Casing size
CS3  .               9 5/8":  Casing shoe 3 - Casing size
CUR_INT_BOT.M              5334.9:  
EDF  .M               314.5:  Elevation of Drill Floor
EGL  .M               305.5:  Elevation of ground level
EKB  .M               314.8:  
QCCD .                 high:  Quality level of the Log data
QCCO .                     :  Company responsible for the Log quality control
QCDT .           1999/01/13:  Date of the Log quality control
QCRM .     carregado por Bucheb:  Comments on the Log quality
QCST .                final:  Status of the Log quality
TAPE_NAME.     2RI__0001__PR_2RI__0001__PR.dlis:  
PROJECT.             Mestrado:  
SET  .                 WIRE:  
~Other Information Block
REMARKS:
R1: VIDE DEMAIS ATRIBUTOS DE CABECALHO (LOG HEADER) NO FILE CORRESPONDENTE

R1: VIDE DEMAIS ATRIBUTOS DE CABECALHO (LOG HEADER) NO FILE CORRESPONDENTE

R1: VIDE DEMAIS ATRIBUTOS DE CABECALHO (LOG HEADER) NO FILE CORRESPONDENTE

TOOL_TABLE:
TOOL #0:
NAME:            FROM__CDN
DESCRIPTION:     OH WIRELINE
TRADEMARK-NAME:  FROM  CDN
GENERIC-NAME:    OH WIRELINE
STATUS:          TRUE
TOOL #0:
NAME:            FROM__BCS
DESCRIPTION:     OH WIRELINE
TRADEMARK-NAME:  FROM  BCS
GENERIC-NAME:    OH WIRELINE
STATUS:          TRUE
TOOL #0:
NAME:            FROM__DIL
DESCRIPTION:     OH WIRELINE
TRADEMARK-NAME:  FROM  DIL
GENERIC-NAME:    OH WIRELINE
STATUS:          TRUE
# 
~A       DEPTH           CALI           CALI           DRHO             DT             GR            ILD            ILM            ITT            LLD           NPHI           RHOB             SP 
# ...
      4102.650       238.8246       253.6190       0.002662        50.3500        52.5750    100000.0000       104.3190         0.0000      1054.3860         6.7600         2.9520        37.8000
      4102.800       240.5061       253.9365       0.006102        50.0750        54.2750    100000.0000       105.1833         0.0000      1054.3860         7.0400         2.9495        37.8000
      4102.950       241.9346       254.3175       0.007256        50.0000        57.9250    100000.0000       108.3675         0.0000      1018.5920         7.4300         2.9403        37.7750
      4103.100       243.1087       255.0795       0.009401        50.0000        62.3750    100000.0000       107.5033         0.0000       918.3330         7.5400         2.9272        37.7500
      4103.250       244.1577       255.9685       0.013828        50.0500        66.1500    100000.0000       101.5515         0.0000       818.4641         7.3300         2.9107        37.8000
      4103.400       245.3333       256.8575       0.019013        50.1500        68.8000    100000.0000        93.1635         0.0000       716.1431         7.0800         2.8917        37.8500
      4103.550       246.5074       257.4925       0.022428        50.1750        71.0750    100000.0000        86.1833         0.0000       626.6140         7.0000         2.8757        37.9250
      4103.700       248.0922       257.8100       0.019634        50.1250        74.6250    100000.0000        82.4755         0.0000       580.7639         7.0700         2.8620        38.1500
      4103.850       248.5059       258.1910       0.012926        50.1500        74.8000    100000.0000        86.9705         0.0000       591.5610         7.1700         2.8550        38.2250
      4104.000       248.7991       258.6990       0.008256        50.3000        74.4500    100000.0000        93.3820         0.0000       608.1350         7.2100         2.8468        38.4000
      4104.150       249.3377       259.1435       0.011655        50.5750        74.6750    100000.0000        99.0430         0.0000       623.7339         7.2900         2.8420        38.5500
      4104.300       250.3839       259.3340       0.031248        51.0500        75.5750    100000.0000        99.5688         0.0000       636.7959         7.5400         2.8390        38.6000
      4104.450       251.8168       259.8420       0.070093        51.6000        76.1250    100000.0000        94.3155         0.0000       650.1289         7.7900         2.8300        38.6500
      4104.600       253.3689       263.0170       0.127666        51.9750        75.7750    100000.0000        90.1690         0.0000       653.1299         7.8600         2.8127        38.7250
      4104.750       255.4208       267.8430       0.190805        52.2250        75.5000    100000.0000        87.4600         0.0000       648.6340         7.6200         2.7955        38.7750
      4104.900       258.4921       268.7955       0.230909        52.5000        76.6000    100000.0000        80.3935         0.0000       641.2090         7.3700         2.7875        38.8000
      4105.050       261.6943       265.9380       0.244695        52.7750        78.8250    100000.0000        69.9398         0.0000       641.2090         7.2900         2.7870        38.8500
      4105.200       264.5141       263.5885       0.242550        52.9500        80.5750    100000.0000        63.1375         1.0000       663.7429         7.4400         2.7850        38.9500
      4105.350       266.5780       262.5090       0.228263        53.0000        80.5500    100000.0000        65.1373         0.0000       674.5281         7.7300         2.7793        38.9500
      4105.500       266.6197       262.0010       0.204854        53.0000        78.5750    100000.0000        73.5495         0.0000       668.3440         8.0900         2.7782        38.9250
      4105.650       265.2612       261.2390       0.173086        53.0250        75.5750    100000.0000        79.9447         0.0000       666.8069         8.4500         2.7890        38.9750
      4105.800       264.0248       259.9055       0.135501        53.1000        72.9500     77482.7500        81.2838         0.0000       653.1299         8.8500         2.8060        39.0000
      4105.950       262.5398       258.9530       0.091086        53.1250        71.2500     32448.3672        83.3613         0.0000       606.7361         9.1300         2.8185        38.9750
      4106.100       259.5401       258.5085       0.044900        53.0000        69.8500     32448.3672        97.4108         0.0000       570.1641         9.1900         2.8247        38.9000
      4106.250       255.6535       258.2545       0.012885        52.8250        68.4500     77482.7500       130.2010         0.0000       549.5410         9.0200         2.8325        38.8250
      4106.400       252.6552       258.1275       0.002382        52.7750        67.8500    100000.0000       161.2155         0.0000       518.8000         8.8100         2.8467        38.8000
      4106.550       251.1777       257.9370       0.006324        52.8750        68.3750    100000.0000       164.0652         0.0000       492.0400         8.6300         2.8637        38.7500
      4106.700       250.8370       257.8100       0.012800        52.9750        68.9000    100000.0000       148.7195         0.0000       478.6299         8.6200         2.8785        38.7000
      4106.850       250.8758       257.9370       0.013185        53.0000        68.1500    100000.0000       137.5610         0.0000       474.2419         8.6800         2.8917        38.7250
      4107.000       250.9071       257.9370       0.008510        52.9750        66.1000    100000.0000       131.1845         0.0000       476.4309         8.7100         2.9050        38.7250
      4107.150       251.0634       257.6830       0.004067        52.8750        63.8000    100000.0000       122.6745         0.0000       483.0591         8.4700         2.9148        38.8000
      4107.300       251.4800       257.4925       0.001390        52.7250        62.0750    100000.0000       114.1930         0.0000       486.4070         8.0600         2.9180        39.0250
      4107.450       252.0247       257.6195       0.000510        52.5750        61.1750    100000.0000       107.8543         0.0000       490.9080         7.7200         2.9192        39.1500
      4107.600       252.4414       258.0640       0.001400        52.4750        60.7250    100000.0000       100.3330         0.0000       490.9080         7.6400         2.9260        39.1750
      4107.750       252.7316       258.3180       0.003055        52.4750        59.5000    100000.0000        91.0773         0.0000       492.0400         7.6700         2.9388        39.2500
      4107.900       253.0248       258.3180       0.003945        52.4250        56.7250    100000.0000        84.4923         0.0000       494.3110         7.6100         2.9520        39.3500
      4108.050       253.3135       258.4450       0.002296        52.2000        53.1750    100000.0000        84.2858         0.0000       502.3430         7.5100         2.9637        39.4500
      4108.200       253.7272       258.8260      -0.001373        51.9250        50.4000    100000.0000        87.6492         0.0000       518.8000         7.3000         2.9757        39.4500
      4108.350       254.2719       259.2070      -0.004550        51.6750        49.3000    100000.0000        86.8107         0.0000       543.2500         7.1200         2.9855        39.2750
      4108.500       254.6856       259.3975      -0.007734        51.4000        49.9750    100000.0000        78.1735         0.0000       567.5439         7.0700         2.9865        39.0750
      4108.650       254.8404       259.6515      -0.011897        51.1250        52.1000    100000.0000        69.3813         0.0000       587.4890         7.2100         2.9777        38.9750
      4108.800       254.8701       260.1595      -0.014785        50.9000        54.4250     75825.8750        70.6248         0.0000       598.4109         7.3400         2.9675        38.9500
