~Version Information Block
VERS .                 2.00:  CWLS LOG ASCII STANDARD - VERSION 2.00
WRAP .                   NO:  One line per depth step
~Well Information Block
#MNEM.UNIT        Data Type   Information
#---------- ----------------  -----------
STRT .M            3485.250:  START DEPTH
STOP .M            5334.750:  STOP DEPTH
STEP .M               0.150:  STEP
NULL .              -999.25:  NULL VALUE
COMP .                     :  COMPANY
WELL .            2-RI-1-PR:  WELL
FLD  .                     :  FIELD
LOC  .                     :  LOCATION
CTRY .                     :  COUNTRY
STAT .                     :  STATE
CNTY .                     :  COUNTY
SRVC .                     :  SERVICE COMPANY
DATE .                     :  DATE
API  .                     :  API NUMBER
UWI  .                     :  UNIQUE WELL ID
~Curve Information Block
#MNEM.UNIT         API CODE   Curve Description
#---------- ----------------  -----------------
DEPTH.M                    :  INDEX5513
CALI .MM                   :  Caliper
CALI .MM                   :  Caliper
DRHO .                     :  Bulk density correction
DT   .US/F                 :  Sonic delta-T
GR   .                     :  Gamma Ray
ILD  .                     :  Deep induction resistivity
ILM  .                     :  Medium induction resistivity
ITT  .                     :  Sonic Transit Time (Slowness)
LLD  .                     :  Deep laterolog resistivity
NPHI .%                    :  Neutron porosity
RHOB .                     :  Bulk density
SP   .                     :  Spontaneous potential
~Parameter Information Block
#MNEM.UNIT            Value   Description
#---------- ----------------  -----------
BS1  .              31 1/2":  Bit size 1
BS2  .              17 1/2":  Bit size 2
BS3  .              12 1/4":  Bit size 3
BSD1 .M                  83:  Total depth 1 measured by driller
BSD2 .M              1463.7:  Total depth 2 measured by driller
BSD3 .M              3491.8:  Total depth 3 measured by driller
CBD1 .M                82.5:  Casing shoe 1 - Driller depth
CBD2 .M              1460.3:  Casing shoe 2 - Driller depth
CBD3 .M              3491.5:  Casing shoe 3 - Driller depth
CS1  .                  20":  Casing shoe 1 - Casing size
CS2  .              13 3/8":  Casing shoe 2 - Casing size
CS3  .               9 5/8":  Casing shoe 3 - Casing size
CUR_INT_BOT.M              5334.9:  
EDF  .M               314.5:  Elevation of Drill Floor
EGL  .M               305.5:  Elevation of ground level
EKB  .M               314.8:  
QCCD .                 high:  Quality level of the Log data
QCCO .                     :  Company responsible for the Log quality control
QCDT .           1999/01/13:  Date of the Log quality control
QCRM .     carregado por Bucheb:  Comments on the Log quality
QCST .                final:  Status of the Log quality
TAPE_NAME.     2RI__0001__PR_2RI__0001__PR.dlis:  
PROJECT.             Mestrado:  
SET  .                 WIRE:  
~Other Information Block
REMARKS:
R1: VIDE DEMAIS ATRIBUTOS DE CABECALHO (LOG HEADER) NO FILE CORRESPONDENTE

R1: VIDE DEMAIS ATRIBUTOS DE CABECALHO (LOG HEADER) NO FILE CORRESPONDENTE

R1: VIDE DEMAIS ATRIBUTOS DE CABECALHO (LOG HEADER) NO FILE CORRESPONDENTE

TOOL_TABLE:
TOOL #0:
NAME:            FROM__CDN
DESCRIPTION:     OH WIRELINE
TRADEMARK-NAME:  FROM  CDN
GENERIC-NAME:    OH WIRELINE
STATUS:          TRUE
TOOL #0:
NAME:            FROM__BCS
DESCRIPTION:     OH WIRELINE
TRADEMARK-NAME:  FROM  BCS
GENERIC-NAME:    OH WIRELINE
STATUS:          TRUE
TOOL #0:
NAME:            FROM__DIL
DESCRIPTION:     OH WIRELINE
TRADEMARK-NAME:  FROM  DIL
GENERIC-NAME:    OH WIRELINE
STATUS:          TRUE
# 
~A       DEPTH           CALI           CALI           DRHO             DT             GR            ILD            ILM            ITT            LLD           NPHI           RHOB             SP 
# ...
      3856.950       223.4916       239.0775      -0.014523        48.4000        40.6250       228.4055       260.8718         0.0000       441.5710         6.5800         3.0358        70.3500
      3857.100       221.3522       239.4585      -0.014682        48.2250        41.4000       254.9248     25404.3203         0.0000       478.6299         6.5800         3.0310        70.3750
      3857.250       220.3553       239.7125      -0.014350        48.1000        41.7250       298.8711     75187.4375         0.0000       550.8069         6.7000         3.0270        70.4250
      3857.400       220.1159       239.5220      -0.016572        48.0250        41.7750       374.3977     75608.0625         0.0000       644.1689         6.8100         3.0255        70.4750
      3857.550       220.0000       238.8235      -0.023355        48.0000        41.6250       582.9563     26251.9063         0.0000       731.1389         6.7900         3.0258        70.5000
      3857.700       219.6318       237.9980      -0.031905        48.0000        41.3250     25618.9961       698.6685         0.0000       809.0950         6.5800         3.0267        70.5000
      3857.850       219.2642       237.4265      -0.035879        48.0000        41.1250     75247.6875        88.4075         0.0000       864.9680         6.2600         3.0293        70.6000
      3858.000       219.0256       237.1725      -0.035540        48.0000        41.3000    100000.0000        60.7105         0.0000       916.2209         5.9700         3.0325        70.7250
      3858.150       218.7897       236.9820      -0.033180        48.0000        41.6750    100000.0000        52.1755         0.0000       966.0500         5.8300         3.0345        70.7500
      3858.300       218.6771       236.7915      -0.029045        48.0000        41.8250    100000.0000        50.9532         0.0000      1020.9390         5.8000         3.0357        70.7000
      3858.450       218.6880       236.7915      -0.024396        48.0000        41.8750     77482.7500        54.6725         0.0000      1066.5950         5.8300         3.0382        70.5500
      3858.600       218.7001       236.8550      -0.019991        47.9750        42.2500     30240.3281        60.8637         0.0000      1119.4370         5.8000         3.0407        70.4250
      3858.750       218.9691       236.9185      -0.017377        47.9000        42.5750      3186.7949        65.5410         0.0000      1172.1941         5.6900         3.0402        70.4000
      3858.900       219.4946       237.1090      -0.016294        47.8500        41.9500       729.2849        66.0520         0.0000      1216.1841         5.5200         3.0378        70.4000
      3859.050       219.8908       237.4265      -0.013924        47.9000        40.4500       569.1333        63.0598         0.0000      1244.5139         5.3400         3.0378        70.4000
      3859.200       220.2843       237.9345      -0.010290        47.9500        39.2750       530.0664        59.1113         0.0000      1256.0310         5.1100         3.0437        70.4000
      3859.350       220.8039       238.5060      -0.007939        47.9000        39.1750       563.1418        56.1602         0.0000      1241.6521         4.8600         3.0555        70.4500
      3859.500       221.3223       238.8870      -0.007363        47.8500        39.9250       741.7234        54.4572         0.0000      1213.3870         4.7000         3.0690        70.5500
      3859.650       221.8404       238.9505      -0.007281        47.8500        41.2000      1067.4304        53.7343         0.0000      1177.6050         4.6900         3.0800        70.6750
      3859.800       222.2342       238.8870      -0.006689        47.7500        42.6000      1228.7278        53.3042         0.0000      1142.8770         4.8600         3.0860        70.8500
      3859.950       222.6308       239.3315      -0.003821        47.6000        43.4500      1055.0598        52.1947         1.0000      1106.6230         5.0800         3.0852        71.0250
      3860.100       223.4077       240.1570       0.001331        47.6500        43.4500       837.7136        50.3703         0.0000      1076.4641         5.1600         3.0770        71.1750
      3860.250       224.3078       240.6015       0.004202        47.8500        42.7750       714.9866        48.3833         0.0000      1047.1279         5.1200         3.0610        71.2500
      3860.400       225.3341       240.7285       0.002253        47.9750        41.7500       692.5042        46.1895         0.0000      1020.9390         5.1300         3.0385        71.2250
      3860.550       226.8715       240.7920      -0.000974        48.0000        40.7500      1393.4465        43.4122         0.0000       979.4900         5.2200         3.0152        71.2000
      3860.700       228.2820       240.7920      -0.000148        48.0250        40.1000     26858.3594        41.4843         0.0000       935.4050         5.3700         2.9992        71.2000
      3860.850       229.0542       240.9190       0.006266        48.1000        40.0250     75825.8750        44.0645         0.0000       891.2510         5.4200         2.9932        71.2000
      3861.000       229.5735       241.2365       0.007866        48.1500        40.3500    100000.0000        50.5330         0.0000       841.3950         5.4400         2.9937        71.2000
      3861.150       229.9684       241.4905      -0.002960        48.1000        40.7250    100000.0000        53.7225         0.0000       792.5010         5.5800         2.9977        71.1500
      3861.300       230.2360       241.5540      -0.016061        48.0500        41.2250    100000.0000        49.8310         0.0000       762.0791         5.7700         3.0037        71.0500
      3861.450       230.7576       241.5540      -0.022564        48.0750        42.1750     75619.3125        43.0705         0.0000       704.6919         6.0000         3.0090        70.9750
      3861.600       231.5334       241.5540      -0.022488        48.1250        43.4750     26591.8438        38.5878         0.0000       685.4890         6.2500         3.0118        70.9000
      3861.750       232.0562       241.4270      -0.017602        48.1750        44.2750      1551.0164        38.5820         0.0000       699.8420         6.4700         3.0138        70.7750
      3861.900       232.1971       241.0460      -0.008904        48.1750        43.9000       941.3054        42.9010         0.0000       731.1389         6.4100         3.0168        70.6000
      3862.050      -999.2500      -999.2500    -999.250000      -999.2500      -999.2500      -999.2500      -999.2500      -999.2500      -999.2500      -999.2500      -999.2500      -999.2500
      3862.200       232.2082       240.2840      -0.001960        48.1000        42.7750       595.2107        49.9825         0.0000       778.0359         6.1800         3.0180        70.4750
      3862.350       231.8408       239.3950      -0.002629        48.0500        41.8250       407.0847        58.7245         0.0000       864.9680         6.0000         3.0128        70.5000
      3862.500       230.9688       239.1410      -0.008394        48.0750        41.5250       326.6907        69.3225         0.0000       914.1130         6.0700         3.0002        70.5750
      3862.650       229.7160       239.4585      -0.016188        48.1250        41.5750       299.1064        82.1565         0.0000       933.2539         6.2100         2.9860        70.6250
      3862.800       228.2092       239.8395      -0.023211        48.2250        41.4500       320.5439        97.2910         0.0000       933.2539         6.2800         2.9785        70.6500
      3862.950       227.3373       240.2205      -0.027692        48.3500        41.2000       409.7026       130.1172         0.0000       920.4490         6.3200         2.9812        70.6250
      3863.100       227.2276       240.6650      -0.030899        48.4000        41.2750       550.5984       313.6033         0.0000       903.6499         6.2700         2.9895        70.6250
