~Version Information Block
VERS .                 2.00:  CWLS LOG ASCII STANDARD - VERSION 2.00
WRAP .                   NO:  One line per depth step
~Well Information Block
#MNEM.UNIT        Data Type   Information
#---------- ----------------  -----------
STRT .M            3485.250:  START DEPTH
STOP .M            5334.750:  STOP DEPTH
STEP .M               0.150:  STEP
NULL .              -999.25:  NULL VALUE
COMP .                     :  COMPANY
WELL .            2-RI-1-PR:  WELL
FLD  .                     :  FIELD
LOC  .                     :  LOCATION
CTRY .                     :  COUNTRY
STAT .                     :  STATE
CNTY .                     :  COUNTY
SRVC .                     :  SERVICE COMPANY
DATE .                     :  DATE
API  .                     :  API NUMBER
UWI  .                     :  UNIQUE WELL ID
~Curve Information Block
#MNEM.UNIT         API CODE   Curve Description
#---------- ----------------  -----------------
DEPTH.M                    :  INDEX5513
CALI .MM                   :  Caliper
CALI .MM                   :  Caliper
DRHO .                     :  Bulk density correction
DT   .US/F                 :  Sonic delta-T
GR   .                     :  Gamma Ray
ILD  .                     :  Deep induction resistivity
ILM  .                     :  Medium induction resistivity
ITT  .                     :  Sonic Transit Time (Slowness)
LLD  .                     :  Deep laterolog resistivity
NPHI .%                    :  Neutron porosity
RHOB .                     :  Bulk density
SP   .                     :  Spontaneous potential
~Parameter Information Block
#MNEM.UNIT            Value   Description
#---------- ----------------  -----------
BS1  .              31 1/2":  Bit size 1
BS2  .              17 1/2":  Bit size 2
BS3  .              12 1/4":  Bit size 3
BSD1 .M                  83:  Total depth 1 measured by driller
BSD2 .M              1463.7:  Total depth 2 measured by driller
BSD3 .M              3491.8:  Total depth 3 measured by driller
CBD1 .M                82.5:  Casing shoe 1 - Driller depth
CBD2 .M              1460.3:  Casing shoe 2 - Driller depth
CBD3 .M              3491.5:  Casing shoe 3 - Driller depth
CS1  .                  20":  Casing shoe 1 - Casing size
CS2  .              13 3/8":  Casing shoe 2 - Casing size
CS3  .               9 5/8":  Casing shoe 3 - Casing size
CUR_INT_BOT.M              5334.9:  
EDF  .M               314.5:  Elevation of Drill Floor
EGL  .M               305.5:  Elevation of ground level
EKB  .M               314.8:  
QCCD .                 high:  Quality level of the Log data
QCCO .                     :  Company responsible for the Log quality control
QCDT .           1999/01/13:  Date of the Log quality control
QCRM .     carregado por Bucheb:  Comments on the Log quality
QCST .                final:  Status of the Log quality
TAPE_NAME.     2RI__0001__PR_2RI__0001__PR.dlis:  
PROJECT.             Mestrado:  
SET  .                 WIRE:  
~Other Information Block
REMARKS:
R1: VIDE DEMAIS ATRIBUTOS DE CABECALHO (LOG HEADER) NO FILE CORRESPONDENTE

R1: VIDE DEMAIS ATRIBUTOS DE CABECALHO (LOG HEADER) NO FILE CORRESPONDENTE

R1: VIDE DEMAIS ATRIBUTOS DE CABECALHO (LOG HEADER) NO FILE CORRESPONDENTE

TOOL_TABLE:
TOOL #0:
NAME:            FROM__CDN
DESCRIPTION:     OH WIRELINE
TRADEMARK-NAME:  FROM  CDN
GENERIC-NAME:    OH WIRELINE
STATUS:          TRUE
TOOL #0:
NAME:            FROM__BCS
DESCRIPTION:     OH WIRELINE
TRADEMARK-NAME:  FROM  BCS
GENERIC-NAME:    OH WIRELINE
STATUS:          TRUE
TOOL #0:
NAME:            FROM__DIL
DESCRIPTION:     OH WIRELINE
TRADEMARK-NAME:  FROM  DIL
GENERIC-NAME:    OH WIRELINE
STATUS:          TRUE
# 
~A       DEPTH           CALI           CALI           DRHO             DT             GR            ILD            ILM            ITT            LLD           NPHI           RHOB             SP 
# ...
      4833.450       254.1443       299.6565       0.249083        59.3000        38.8500     75038.8750        58.9717         0.0000        53.0880        18.4800         1.6407        41.6000
      4833.600       254.6800       285.4960       0.251197        58.6000        43.2500     25094.2773        96.6000         0.0000        52.4810        14.3000         1.6177        41.3000
      4833.750       260.0134       284.4800       0.248998        57.8500        48.4750        82.4000        78.2660         0.0000        53.7030        10.0900         1.7092        41.0000
      4833.900       270.0186       289.8140       0.209449        57.3250        51.1000        43.0210        32.1217         0.0000        53.8270         8.1400         1.8725        40.7500
      4834.050       270.8068       283.4640       0.136097        57.2250        49.8750        26.3985        12.5545         0.0000        53.0880         7.4300         2.0100        40.5250
      4834.200       258.2153       271.9705       0.098319        57.6000        47.2000        23.8715         7.6137         0.0000        47.9730         6.8900         2.0337        40.3250
      4834.350       247.1397       267.9700       0.083672        58.2500        46.3750        31.7505         5.7235         0.0000        42.6580         6.5800         1.9377        40.2250
      4834.500       244.7697       275.2726       0.065727        58.5750        48.2250        38.3768     25004.8867         0.0000        43.3510         7.2800         1.8050        40.1750
      4834.650       250.6042       291.2110       0.071909        58.2000        50.8000        40.3327     75001.8750         0.0000        49.2040         9.0000         1.7370        40.1000
      4834.800       261.3641       281.5590       0.105769        57.7250        51.7750        36.4855     75019.8125         0.0000        50.9330        11.4600         1.7805        39.9250
      4834.950       268.9684       273.4945       0.145732        57.6500        51.4500        27.9385     25044.6367         0.0000        49.3170        12.5200         1.9122        39.7500
      4835.100       274.1757       270.9545       0.168933        58.3500        53.3750        29.5083        35.5228         0.0000        49.7740        11.3000         2.0723        39.7000
      4835.250       281.5314       269.6210       0.173076        61.0000        60.7000        82.6745        23.9020         0.0000        53.4560         9.7100         2.2072        39.7000
      4835.400       286.2351       265.0490       0.171632        64.8250        71.7750     25117.2070        24.8293         0.0000        60.3950         9.5300         2.2960        39.6500
      4835.550       282.0980       257.6830       0.173747        66.9750        81.3500     75052.3125        19.8958         0.0000        78.1630        12.1400         2.3467        39.4500
      4835.700       270.5124       253.7460       0.182468        66.6000        85.9000    100000.0000        18.0120         0.0000        90.9910        17.6100         2.3757        39.1000
      4835.850       260.0678       254.0635       0.193479        64.2250        85.3000     75043.8125        23.9950         0.0000       102.3290        21.1600         2.3890        38.6750
      4836.000       256.0621       255.9050       0.194070        61.3000        80.2500     25105.1523        35.7130         0.0000       110.9180        18.7900         2.3837        38.1750
      4836.150       253.6921       255.2700       0.178654        60.6000        71.0750        91.8185        39.6467         0.0000       104.4720        13.0200         2.3640        37.5750
      4836.300       249.0502       251.5870       0.153845        62.1000        59.7500        60.0550        26.5930         0.0000        85.5070         9.2400         2.3450        36.9500
      4836.450       243.6534       251.8410       0.129293        62.7750        50.9500        67.7425        15.0080         0.0000        78.7050         8.8500         2.3337        36.4250
      4836.600       240.5286       256.6670       0.114897        61.0750        48.9000        82.2600        21.0527         0.0000        73.6210         9.7000         2.3158        35.8500
      4836.750       243.2102       258.1910       0.117770        58.5750        53.3500        86.9930        64.6638         0.0000        61.8020        11.0500         2.2770        35.1000
      4836.900       248.5424       253.8730       0.124206        57.3250        59.2500        79.1690        96.8050         1.0000        53.8270        12.0300         2.2332        34.2250
      4837.050       249.8406       249.6820       0.115146        56.9750        61.0500        64.6245        60.5033         0.0000        51.6420        12.0500         2.2195        33.3750
      4837.200       248.0089       250.3805       0.081525        56.7000        52.5000        58.6588        28.4142         0.0000        43.8530        11.0700         2.3022        32.1000
      4837.350       248.1610       251.5870       0.084147        57.1000        47.7750        61.8067        24.1337         0.0000        38.6370         9.2400         2.3152        31.6500
      4837.500       248.5750       253.6190       0.096170        58.2750        44.2750        63.5565        17.8425         0.0000        36.6440         7.6100         2.2507        31.3750
      4837.650       248.3604       256.2225       0.103114        59.3000        42.4750        66.3188        15.1320         0.0000        35.9750         6.9500         2.1190        31.2250
      4837.800       246.8746       261.8105       0.095829        59.8000        42.7750        64.2533        17.8737         0.0000        37.1540         7.9800         1.9635        31.0750
      4837.950       246.0149       269.1765       0.079404        60.2000        44.1750        54.3232        24.2692         0.0000        38.0190         9.5000         1.8267        30.8500
      4838.100       250.5872       277.1775       0.067064        60.6750        45.0250        42.3112        26.0425         0.0000        38.3710         9.7200         1.7365        30.7000
      4838.250       261.7270       290.9570       0.062593        60.9250        45.0750        34.5835        20.6790         0.0000        37.6700         9.1600         1.6967        30.5500
      4838.400       270.3423       307.2765       0.059611        60.9500        45.1750        32.4707        16.4657         0.0000        35.5630         8.9000         1.6800        30.4250
      4838.550       271.8865       313.3725       0.052051        60.9750        45.7250        32.9393        18.4227         0.0000        31.2610         9.3100         1.6495        30.4000
      4838.700       270.9063       298.7675       0.039683        60.9250        46.6500        33.1178        26.0170         0.0000        30.6900         9.3300         1.6007        30.4750
      4838.850       267.5291       279.6540       0.032147        60.6750        48.2750        32.1155        32.4520         0.0000        31.2610         9.1000         1.5717        30.6250
      4839.000       267.4337       280.6700       0.045690        59.8000        51.6250        29.7445        30.8772         0.0000        31.7690         9.5300         1.6042        30.7500
      4839.150       276.5526       291.9730       0.079808        58.0250        57.7250        28.1435        31.1975         0.0000        31.7690        10.3400         1.6978        30.8000
      4839.300       282.7697       288.7345       0.115199        57.8500        65.3750        29.2290        46.0202         0.0000        31.4050        11.3500         1.8050        30.7000
      4839.450       281.4135       279.8445       0.136880        62.4000        70.2250        30.3650        54.8120         0.0000        27.8610        11.3800         1.8760        30.5000
      4839.600       282.0742       281.1780       0.141541        69.1000        68.4750        29.9362        38.4140         0.0000        25.1190        10.4100         1.8993        30.3250
