~Version Information Block
VERS .                 2.00:  CWLS LOG ASCII STANDARD - VERSION 2.00
WRAP .                   NO:  One line per depth step
~Well Information Block
#MNEM.UNIT        Data Type   Information
#---------- ----------------  -----------
STRT .M            3485.250:  START DEPTH
STOP .M            5334.750:  STOP DEPTH
STEP .M               0.150:  STEP
NULL .              -999.25:  NULL VALUE
COMP .                     :  COMPANY
WELL .            2-RI-1-PR:  WELL
FLD  .                     :  FIELD
LOC  .                     :  LOCATION
CTRY .                     :  COUNTRY
STAT .                     :  STATE
CNTY .                     :  COUNTY
SRVC .                     :  SERVICE COMPANY
DATE .                     :  DATE
API  .                     :  API NUMBER
UWI  .                     :  UNIQUE WELL ID
~Curve Information Block
#MNEM.UNIT         API CODE   Curve Description
#---------- ----------------  -----------------
DEPTH.M                    :  INDEX5513
CALI .MM                   :  Caliper
CALI .MM                   :  Caliper
DRHO .                     :  Bulk density correction
DT   .US/F                 :  Sonic delta-T
GR   .                     :  Gamma Ray
ILD  .                     :  Deep induction resistivity
ILM  .                     :  Medium induction resistivity
ITT  .                     :  Sonic Transit Time (Slowness)
LLD  .                     :  Deep laterolog resistivity
NPHI .%                    :  Neutron porosity
RHOB .                     :  Bulk density
SP   .                     :  Spontaneous potential
~Parameter Information Block
#MNEM.UNIT            Value   Description
#---------- ----------------  -----------
BS1  .              31 1/2":  Bit size 1
BS2  .              17 1/2":  Bit size 2
BS3  .              12 1/4":  Bit size 3
BSD1 .M                  83:  Total depth 1 measured by driller
BSD2 .M              1463.7:  Total depth 2 measured by driller
BSD3 .M              3491.8:  Total depth 3 measured by driller
CBD1 .M                82.5:  Casing shoe 1 - Driller depth
CBD2 .M              1460.3:  Casing shoe 2 - Driller depth
CBD3 .M              3491.5:  Casing shoe 3 - Driller depth
CS1  .                  20":  Casing shoe 1 - Casing size
CS2  .              13 3/8":  Casing shoe 2 - Casing size
CS3  .               9 5/8":  Casing shoe 3 - Casing size
CUR_INT_BOT.M              5334.9:  
EDF  .M               314.5:  Elevation of Drill Floor
EGL  .M               305.5:  Elevation of ground level
EKB  .M               314.8:  
QCCD .                 high:  Quality level of the Log data
QCCO .                     :  Company responsible for the Log quality control
QCDT .           1999/01/13:  Date of the Log quality control
QCRM .     carregado por Bucheb:  Comments on the Log quality
QCST .                final:  Status of the Log quality
TAPE_NAME.     2RI__0001__PR_2RI__0001__PR.dlis:  
PROJECT.             Mestrado:  
SET  .                 WIRE:  
~Other Information Block
REMARKS:
R1: VIDE DEMAIS ATRIBUTOS DE CABECALHO (LOG HEADER) NO FILE CORRESPONDENTE

R1: VIDE DEMAIS ATRIBUTOS DE CABECALHO (LOG HEADER) NO FILE CORRESPONDENTE

R1: VIDE DEMAIS ATRIBUTOS DE CABECALHO (LOG HEADER) NO FILE CORRESPONDENTE

TOOL_TABLE:
TOOL #0:
NAME:            FROM__CDN
DESCRIPTION:     OH WIRELINE
TRADEMARK-NAME:  FROM  CDN
GENERIC-NAME:    OH WIRELINE
STATUS:          TRUE
TOOL #0:
NAME:            FROM__BCS
DESCRIPTION:     OH WIRELINE
TRADEMARK-NAME:  FROM  BCS
GENERIC-NAME:    OH WIRELINE
STATUS:          TRUE
TOOL #0:
NAME:            FROM__DIL
DESCRIPTION:     OH WIRELINE
TRADEMARK-NAME:  FROM  DIL
GENERIC-NAME:    OH WIRELINE
STATUS:          TRUE
# 
~A       DEPTH           CALI           CALI           DRHO             DT             GR            ILD            ILM            ITT            LLD           NPHI           RHOB             SP 
# ...
      3491.550       234.0679       237.7440       0.011540        54.4000        45.0000       774.0325        41.8525         0.0000       314.0510         1.7600         2.6242        67.1250
      3491.700       234.4489       239.0775       0.014817        53.8500        42.3500       618.3049        42.9535         0.0000       322.1069         1.7300         2.6295        67.4750
      3491.850       234.8300       240.7285       0.019611        53.5500        41.3500       430.5383        39.8867         1.0000       299.9160         1.6900         2.6322        67.8500
      3492.000       235.4646       242.1255       0.023394        53.7750        43.1750       300.9780        35.0983         0.0000       253.5130         1.6400         2.6325        67.9250
      3492.150       236.0992       243.9035       0.024393        54.5000        49.0500       226.5882        30.5927         0.0000       197.2420         1.6100         2.6312        67.8000
      3492.300       236.8604       246.6975       0.022608        55.3000        59.1500       174.0113        27.6357         0.0000       137.7210         1.6100         2.6307        67.9750
      3492.450       238.1290       249.1740       0.018548        55.8250        71.3750       139.6933        25.7295         0.0000        90.1570         1.6300         2.6330        68.5500
      3492.600       239.5876       250.4440       0.013222        56.0500        82.2000       121.5070        24.8190         0.0000        75.8580         1.6900         2.6380        69.2250
      3492.750       240.9194       251.0155       0.007642        56.1500        89.3750       105.2988        25.1887         0.0000        72.4440         1.8100         2.6427        69.8500
      3492.900       242.1242       251.3330       0.002568        56.3750        93.3000        90.9375        26.3505         0.0000        71.9450         2.0000         2.6442        70.3750
      3493.050       243.3292       251.6505      -0.000226        56.7250        95.5000        80.8670        27.5200         0.0000        69.0240         2.2900         2.6430        70.8000
      3493.200       244.7245       252.5395       0.000016        56.9500        97.0750        72.7258        28.1390         0.0000        64.2690         2.6400         2.6410        71.1500
      3493.350       245.9930       253.8095       0.003545        57.0000        98.4750        67.4240        27.2432         0.0000        60.8140         3.1800         2.6400        71.5000
      3493.500       246.8809       254.5080       0.013654        57.0000       100.1000        66.5355        25.0082         0.0000        58.6140         4.0200         2.6415        71.8750
      3493.650       247.6422       254.6985       0.033885        57.0000       102.4250        67.7725        24.3110         0.0000        56.3640         4.6200         2.6433        72.1250
      3493.800       248.2770       254.8255       0.057910        57.0000       104.8000        68.3910        28.2912         0.0000        54.7020         4.9000         2.6388        72.3250
      3493.950       248.7853       255.0160       0.067260        57.0000       105.5500        68.1565        34.8672         0.0000        55.3350         4.9600         2.6250        72.5750
      3494.100       249.1665       255.3335       0.050294        57.0250       103.8750        67.3035        37.7220         0.0000        58.8840         4.9900         2.6090        72.8000
      3494.250       249.4206       255.6510       0.020423        57.0500       100.9500        66.4153        35.9735         0.0000        62.8060         5.1700         2.6023        73.0000
      3494.400       249.5483       255.7780      -0.000338        57.0000        98.6750        67.5287        33.0283         0.0000        64.4170         5.4200         2.6073        73.2250
      3494.550       249.4226       255.8415      -0.006426        56.8500        97.5000        70.7238        30.4702         0.0000        65.6150         5.6100         2.6152        73.5000
      3494.700       249.2967       255.9050      -0.004416        56.6750        96.6500        73.0783        29.4323         0.0000        66.6810         5.7200         2.6182        73.7250
      3494.850       249.2974       255.8415       0.000380        56.6500        95.8250        74.0498        29.8245         0.0000        66.2220         5.7200         2.6163        73.7750
      3495.000       249.2982       255.7780       0.005933        56.7500        95.6750        73.8128        29.9603         0.0000        64.2690         5.6600         2.6145        73.8500
      3495.150       249.2991       255.9050       0.009969        56.8750        96.6750        70.4543        29.0423         0.0000        62.5170         5.5900         2.6185        74.1250
      3495.300       249.3001       256.1590       0.012486        57.2000        98.3000        65.4368        27.2982         0.0000        58.0760         5.5200         2.6300        74.4000
      3495.450       249.3013       256.1590       0.016776        57.8000       100.3250        62.2092        25.8395         0.0000        53.9510         5.5500         2.6445        74.5500
      3495.600       249.3023       255.9685       0.023849        58.3500       103.5250        61.0252        26.1615         0.0000        52.0000         5.6400         2.6537        74.6250
      3495.750       249.4298       255.9685       0.027885        58.4250       107.7000        60.8495        27.7122         0.0000        51.8800         5.7600         2.6522        74.7250
      3495.900       249.6839       256.0320       0.022306        57.9250       109.8750        61.2363        28.7100         0.0000        52.8450         5.8000         2.6423        74.8500
      3496.050       249.8114       256.0320       0.008630        57.2250       107.3250        61.5882        28.9907         0.0000        55.9760         5.7800         2.6320        74.9000
      3496.200       249.8125       255.9685      -0.005805        56.8000       101.9500        62.6102        29.1413         0.0000        59.0200         5.9700         2.6270        74.9250
      3496.350       249.6869       255.7145      -0.014674        56.6750        98.3500        65.6025        29.3438         0.0000        60.8140         6.5800         2.6263        74.9750
      3496.500       249.4344       255.3335      -0.015952        56.6250        98.7250        69.6828        29.7012         0.0000        60.9540         7.2400         2.6265        74.9750
      3496.650       249.3084       254.8890      -0.012171        56.6500       101.3500        72.7990        29.9747         0.0000        60.1170         7.3100         2.6260        74.9250
      3496.800       249.1825       254.5080      -0.008389        56.8000       103.4250        74.3047        29.9575         0.0000        59.2930         6.7600         2.6248        74.9000
      3496.950       248.9301       254.3810      -0.006884        56.9500       103.6250        75.0348        29.7855         0.0000        58.0760         6.0600         2.6235        74.9000
      3497.100       248.6774       254.3175      -0.007654        57.0000       101.9500        75.3360        29.5635         1.0000        56.3640         5.6300         2.6230        74.9250
      3497.250       248.3613       254.1905      -0.010196        57.0000        99.5750        75.5103        29.3600         0.0000        55.4630         5.4300         2.6235        75.0000
      3497.400       248.0452       253.7460      -0.012234        57.0000        98.3500        76.4815        29.2587         0.0000        54.5760         5.2900         2.6250        75.1000
      3497.550       247.7292       252.9840      -0.009970        57.0000        98.8750        78.5443        29.4467         0.0000        55.2080         5.1500         2.6257        75.0500
      3497.700       247.4131       252.4125      -0.003657        56.9500        99.5000        80.2673        30.1025         0.0000        56.8850         5.0400         2.6230        74.5750
