~Version Information Block
VERS .                 2.00:  CWLS LOG ASCII STANDARD - VERSION 2.00
WRAP .                   NO:  One line per depth step
~Well Information Block
#MNEM.UNIT        Data Type   Information
#---------- ----------------  -----------
STRT .M            3485.250:  START DEPTH
STOP .M            5334.750:  STOP DEPTH
STEP .M               0.150:  STEP
NULL .              -999.25:  NULL VALUE
COMP .                     :  COMPANY
WELL .            2-RI-1-PR:  WELL
FLD  .                     :  FIELD
LOC  .                     :  LOCATION
CTRY .                     :  COUNTRY
STAT .                     :  STATE
CNTY .                     :  COUNTY
SRVC .                     :  SERVICE COMPANY
DATE .                     :  DATE
API  .                     :  API NUMBER
UWI  .                     :  UNIQUE WELL ID
~Curve Information Block
#MNEM.UNIT         API CODE   Curve Description
#---------- ----------------  -----------------
DEPTH.M                    :  INDEX5513
CALI .MM                   :  Caliper
CALI .MM                   :  Caliper
DRHO .                     :  Bulk density correction
DT   .US/F                 :  Sonic delta-T
GR   .                     :  Gamma Ray
ILD  .                     :  Deep induction resistivity
ILM  .                     :  Medium induction resistivity
ITT  .                     :  Sonic Transit Time (Slowness)
LLD  .                     :  Deep laterolog resistivity
NPHI .%                    :  Neutron porosity
RHOB .                     :  Bulk density
SP   .                     :  Spontaneous potential
~Parameter Information Block
#MNEM.UNIT            Value   Description
#---------- ----------------  -----------
BS1  .              31 1/2":  Bit size 1
BS2  .              17 1/2":  Bit size 2
BS3  .              12 1/4":  Bit size 3
BSD1 .M                  83:  Total depth 1 measured by driller
BSD2 .M              1463.7:  Total depth 2 measured by driller
BSD3 .M              3491.8:  Total depth 3 measured by driller
CBD1 .M                82.5:  Casing shoe 1 - Driller depth
CBD2 .M              1460.3:  Casing shoe 2 - Driller depth
CBD3 .M              3491.5:  Casing shoe 3 - Driller depth
CS1  .                  20":  Casing shoe 1 - Casing size
CS2  .              13 3/8":  Casing shoe 2 - Casing size
CS3  .               9 5/8":  Casing shoe 3 - Casing size
CUR_INT_BOT.M              5334.9:  
EDF  .M               314.5:  Elevation of Drill Floor
EGL  .M               305.5:  Elevation of ground level
EKB  .M               314.8:  
QCCD .                 high:  Quality level of the Log data
QCCO .                     :  Company responsible for the Log quality control
QCDT .           1999/01/13:  Date of the Log quality control
QCRM .     carregado por Bucheb:  Comments on the Log quality
QCST .                final:  Status of the Log quality
TAPE_NAME.     2RI__0001__PR_2RI__0001__PR.dlis:  
PROJECT.             Mestrado:  
SET  .                 WIRE:  
~Other Information Block
REMARKS:
R1: VIDE DEMAIS ATRIBUTOS DE CABECALHO (LOG HEADER) NO FILE CORRESPONDENTE

R1: VIDE DEMAIS ATRIBUTOS DE CABECALHO (LOG HEADER) NO FILE CORRESPONDENTE

R1: VIDE DEMAIS ATRIBUTOS DE CABECALHO (LOG HEADER) NO FILE CORRESPONDENTE

TOOL_TABLE:
TOOL #0:
NAME:            FROM__CDN
DESCRIPTION:     OH WIRELINE
TRADEMARK-NAME:  FROM  CDN
GENERIC-NAME:    OH WIRELINE
STATUS:          TRUE
TOOL #0:
NAME:            FROM__BCS
DESCRIPTION:     OH WIRELINE
TRADEMARK-NAME:  FROM  BCS
GENERIC-NAME:    OH WIRELINE
STATUS:          TRUE
TOOL #0:
NAME:            FROM__DIL
DESCRIPTION:     OH WIRELINE
TRADEMARK-NAME:  FROM  DIL
GENERIC-NAME:    OH WIRELINE
STATUS:          TRUE
# 
~A       DEPTH           CALI           CALI           DRHO             DT             GR            ILD            ILM            ITT            LLD           NPHI           RHOB             SP 
# ...
      4713.750       220.6139       230.1875      -0.005009        58.2750       137.3000         3.4648         2.9375         0.0000       154.5250        25.4700         2.7358        29.6000
      4713.900       219.4688       229.5525      -0.003667        58.1000       133.1250         4.7770         3.9570         0.0000       251.1880        25.3800         2.7368        29.3750
      4714.050       217.5637       229.1080      -0.001580        57.9750       129.0500         9.0228         6.2317         0.0000       344.3501        22.6000         2.7360        29.1500
      4714.200       215.6583       229.0445       0.000264        57.8000       127.6000     25010.4688        21.8220         0.0000       425.5979        19.6700         2.7355        28.9000
      4714.350       214.0061       229.0445      -0.001157        57.6750       132.1500     75004.3125     25033.1953         0.0000       418.7930        18.2500         2.7373        28.5750
      4714.500       212.9881       228.7270      -0.007125        57.6500       138.7250     75004.8125     75015.3125         0.0000       344.3501        17.7400         2.7352        28.2750
      4714.650       212.4771       228.1555      -0.012874        57.5750       141.7000     25011.9336     75013.4375         0.0000       267.9170        17.7000         2.7245        27.9000
      4714.800       211.9654       227.5840      -0.016107        57.3250       139.9000        11.4963     25028.1602         0.0000       245.4710        17.8800         2.7080        27.3250
      4714.950       211.5806       227.0760      -0.016536        56.9500       135.9000         9.3698        18.7538         0.0000       337.2881        18.0200         2.6917        26.7750
      4715.100       211.4500       226.1870      -0.011899        56.6750       133.1500     25007.7227     25006.7383         0.0000       514.0439        18.3200         2.6812        26.3000
      4715.250       211.4458       225.0440      -0.001951        56.5250       131.2000     75002.7500     75002.6875         0.0000       717.7939        17.8700         2.6807        25.7000
      4715.400       211.4410       224.5360       0.008502        56.1250       126.2000    100000.0000    100000.0000         0.0000       895.3650        17.0000         2.6967        24.9750
      4715.550       211.4370       224.5360       0.011868        55.1000       114.6750    100000.0000     75009.2500         0.0000      1000.0010        15.6000         2.7355        24.2250
      4715.700       211.4334       224.5360       0.004608        53.5000        96.5000     75059.9375     25030.0781         0.0000       990.8320        14.4800         2.7920        23.4000
      4715.850       211.4289       224.4725      -0.008978        51.7750        75.3750     25131.2383        43.4320         0.0000       948.4180        13.8400         2.8480        22.5500
      4716.000       211.2940       224.3455      -0.031595        50.3500        44.4750        89.7243        41.1290         3.0000       909.9131        13.3500         2.9012        21.7000
      4716.150       211.0369       224.4090      -0.037827        49.4750        38.1750       130.2968        27.7110         0.0000       822.2419        12.6200         2.9032        19.9750
      4716.300       210.9063       224.2820      -0.040263        49.2000        35.4250       308.4651        35.4830         0.0000       756.8320        11.9100         2.9038        19.2250
      4716.450       211.0286       224.0280      -0.040683        49.3250        34.5250       417.4609        46.6427         0.0000       668.3440        11.8200         2.9097        18.6500
      4716.600       211.2774       223.8375      -0.040090        49.5250        35.1000       368.1450        51.4440         0.0000       588.8430        12.7800         2.9205        18.4000
      4716.750       211.5261       223.9010      -0.038245        49.6000        36.8500       289.7107        51.7640         0.0000       533.3340        14.6200         2.9300        18.2750
      4716.900       211.7747       224.0280      -0.034896        49.5500        39.1000       255.3625        52.4908         0.0000       479.7329        16.5600         2.9335        18.1000
      4717.050       212.0237       223.9010      -0.029513        49.3750        41.3000       235.3660        52.8607         0.0000       430.5271        18.0100         2.9330        17.9500
      4717.200       212.3365       223.7740      -0.022096        49.2000        43.3500       229.1785        51.2580         0.0000       392.6450        18.8300         2.9355        17.8500
      4717.350       212.6497       223.7105      -0.014932        49.2250        45.1250       240.7640        50.0120         0.0000       362.2429        19.1000         2.9450        17.7500
      4717.500       212.8360       223.6470      -0.012322        49.3250        46.1000       260.1392        51.7977         0.0000       390.8411        18.8600         2.9567        17.6250
      4717.650       213.0210       223.8375      -0.016037        49.3250        45.9250       293.8662        56.0537         0.0000       606.7361        18.3100         2.9618        17.4500
      4717.800       213.2694       224.0280      -0.021010        49.3250        45.3750       349.4324        60.0587         0.0000       905.7319        17.8000         2.9572        17.3000
      4717.950       213.3925       223.9010      -0.022698        49.3750        45.7750       405.8542        62.4202         0.0000      1218.9900        17.5900         2.9508        17.1500
      4718.100       213.3892       223.7740      -0.023370        49.3500        47.2750       472.6863        63.6840         0.0000      1520.5459        17.5300         2.9520        16.9000
      4718.250      -999.2500       223.7105    -999.250000        49.2000      -999.2500       568.0315        64.4190         0.0000      1713.9570      -999.2500      -999.2500        16.6500
      4718.400       213.3856      -999.2500      -0.025047      -999.2500        47.2750      -999.2500      -999.2500      -999.2500      -999.2500        17.4900         2.9620      -999.2500
      4718.550       213.3818       223.5200      -0.026745        49.0500        48.8000       629.6167        64.9025         0.0000      1610.6440        17.4400         2.9715        16.4500
      4718.700       213.2508       223.3295      -0.027940        49.0000        49.6250       650.7881        65.0880         0.0000      1389.9519        17.4400         2.9705        16.1500
      4718.850       212.9928       223.3295      -0.027604        49.0250        50.0500       756.1851        65.4278         0.0000      1142.8770        17.5300         2.9575        15.6500
      4719.000       212.8619       223.4565      -0.025237        49.0500        50.5750       897.7954        66.2250         0.0000       903.6499        17.5900         2.9402        15.1000
      4719.150       212.8578       223.4565      -0.022373        49.0250        51.2500       905.0034        66.6825         0.0000       849.1799        17.3700         2.9300        14.7500
      4719.300       212.8538       223.3295      -0.020033        49.0000        51.6000       828.9319        66.1125         0.0000      1023.2920        16.9500         2.9323        14.5500
      4719.450       212.8498       223.3295      -0.017935        49.0000        51.2000       794.0586        65.3153         0.0000      1270.5730        16.6200         2.9432        14.3500
      4719.600       212.8450       223.3930      -0.016583        49.0000        50.7000       851.2468        64.9025         0.0000      1531.0869        16.4700         2.9552        14.2250
      4719.750       212.8396       223.3930      -0.018271        49.0000        51.2500       949.6335        64.0903         0.0000      1782.3799        16.2900         2.9620        14.2000
      4719.900       212.7077       223.4565      -0.022749        49.0000        52.6250       990.8320        63.1348         0.0000      1887.9910        15.8900         2.9613        14.2000
