~Version Information Block
VERS .                 2.00:  CWLS LOG ASCII STANDARD - VERSION 2.00
WRAP .                   NO:  One line per depth step
~Well Information Block
#MNEM.UNIT        Data Type   Information
#---------- ----------------  -----------
STRT .M            3485.250:  START DEPTH
STOP .M            5334.750:  STOP DEPTH
STEP .M               0.150:  STEP
NULL .              -999.25:  NULL VALUE
COMP .                     :  COMPANY
WELL .            2-RI-1-PR:  WELL
FLD  .                     :  FIELD
LOC  .                     :  LOCATION
CTRY .                     :  COUNTRY
STAT .                     :  STATE
CNTY .                     :  COUNTY
SRVC .                     :  SERVICE COMPANY
DATE .                     :  DATE
API  .                     :  API NUMBER
UWI  .                     :  UNIQUE WELL ID
~Curve Information Block
#MNEM.UNIT         API CODE   Curve Description
#---------- ----------------  -----------------
DEPTH.M                    :  INDEX5513
CALI .MM                   :  Caliper
CALI .MM                   :  Caliper
DRHO .                     :  Bulk density correction
DT   .US/F                 :  Sonic delta-T
GR   .                     :  Gamma Ray
ILD  .                     :  Deep induction resistivity
ILM  .                     :  Medium induction resistivity
ITT  .                     :  Sonic Transit Time (Slowness)
LLD  .                     :  Deep laterolog resistivity
NPHI .%                    :  Neutron porosity
RHOB .                     :  Bulk density
SP   .                     :  Spontaneous potential
~Parameter Information Block
#MNEM.UNIT            Value   Description
#---------- ----------------  -----------
BS1  .              31 1/2":  Bit size 1
BS2  .              17 1/2":  Bit size 2
BS3  .              12 1/4":  Bit size 3
BSD1 .M                  83:  Total depth 1 measured by driller
BSD2 .M              1463.7:  Total depth 2 measured by driller
BSD3 .M              3491.8:  Total depth 3 measured by driller
CBD1 .M                82.5:  Casing shoe 1 - Driller depth
CBD2 .M              1460.3:  Casing shoe 2 - Driller depth
CBD3 .M              3491.5:  Casing shoe 3 - Driller depth
CS1  .                  20":  Casing shoe 1 - Casing size
CS2  .              13 3/8":  Casing shoe 2 - Casing size
CS3  .               9 5/8":  Casing shoe 3 - Casing size
CUR_INT_BOT.M              5334.9:  
EDF  .M               314.5:  Elevation of Drill Floor
EGL  .M               305.5:  Elevation of ground level
EKB  .M               314.8:  
QCCD .                 high:  Quality level of the Log data
QCCO .                     :  Company responsible for the Log quality control
QCDT .           1999/01/13:  Date of the Log quality control
QCRM .     carregado por Bucheb:  Comments on the Log quality
QCST .                final:  Status of the Log quality
TAPE_NAME.     2RI__0001__PR_2RI__0001__PR.dlis:  
PROJECT.             Mestrado:  
SET  .                 WIRE:  
~Other Information Block
REMARKS:
R1: VIDE DEMAIS ATRIBUTOS DE CABECALHO (LOG HEADER) NO FILE CORRESPONDENTE

R1: VIDE DEMAIS ATRIBUTOS DE CABECALHO (LOG HEADER) NO FILE CORRESPONDENTE

R1: VIDE DEMAIS ATRIBUTOS DE CABECALHO (LOG HEADER) NO FILE CORRESPONDENTE

TOOL_TABLE:
TOOL #0:
NAME:            FROM__CDN
DESCRIPTION:     OH WIRELINE
TRADEMARK-NAME:  FROM  CDN
GENERIC-NAME:    OH WIRELINE
STATUS:          TRUE
TOOL #0:
NAME:            FROM__BCS
DESCRIPTION:     OH WIRELINE
TRADEMARK-NAME:  FROM  BCS
GENERIC-NAME:    OH WIRELINE
STATUS:          TRUE
TOOL #0:
NAME:            FROM__DIL
DESCRIPTION:     OH WIRELINE
TRADEMARK-NAME:  FROM  DIL
GENERIC-NAME:    OH WIRELINE
STATUS:          TRUE
# 
~A       DEPTH           CALI           CALI           DRHO             DT             GR            ILD            ILM            ITT            LLD           NPHI           RHOB             SP 
# ...
      3737.250       235.7777       246.5705      -0.005077        50.9750        57.9250       380.1890        42.5482         0.0000       389.9409         8.9400         2.9248        34.1750
      3737.400       235.9294       246.7610       0.000946        51.0000        56.2250       367.3545        41.7365         0.0000       359.7490         9.3100         2.9290        34.5750
      3737.550       235.9578       247.1420       0.006207        51.0000        55.1250       341.6855        42.1523         0.0000       334.9651         9.4400         2.9248        34.6500
      3737.700       235.9878       247.1420       0.012476        50.9000        55.5250       319.0718        43.3367         0.0000       314.7749         9.3800         2.9202        34.6500
      3737.850       236.0157       246.8245       0.020528        50.8500        56.6000       297.5391        44.4162         0.0000       297.8511         9.2200         2.9242        34.7000
      3738.000       236.0405       246.8245       0.026812        50.8250        57.0500       283.8118        45.2688         0.0000       292.4150         9.1100         2.9352        34.6500
      3738.150       236.1865       247.7135       0.025721        50.7000        56.3750       293.5911        46.6033         0.0000       286.4170         9.0400         2.9460        34.6000
      3738.300       236.8378      -999.2500       0.017779      -999.2500        54.8000       333.7263        48.5233      -999.2500       276.0581         8.9600         2.9548        34.6250
      3738.450      -999.2500       248.9835    -999.250000        50.5000      -999.2500      -999.2500      -999.2500         0.0000      -999.2500      -999.2500      -999.2500      -999.2500
      3738.600       238.3808       249.8090       0.009591        50.3500        53.1000       387.2795        50.4832         0.0000       267.9170         8.9500         2.9650        34.7000
      3738.750       239.9259       250.5075       0.006986        50.2500        52.0500       412.4509        51.6772         0.0000       261.8181         8.9700         2.9775        34.7750
      3738.900       239.6962       252.1585       0.014785        50.1000        51.8250       393.1597        50.3845         0.0000       260.6150         9.0500         2.9905        34.8000
      3739.050       238.3292       256.9845       0.047729        49.8500        51.5750       357.2397        46.3685         0.0000       259.4180         9.2200         3.0030        34.9000
      3739.200       238.1057       264.4140       0.126150        49.5000        49.7250       334.7310        43.1397         0.0000       261.2161         9.4500         3.0057        35.1000
      3739.350       240.2863       267.5890       0.213721        49.1000        45.7250       345.4797        43.4812         0.0000       257.0391         9.6000         2.9820        35.0500
      3739.500       244.1038       262.1915       0.250233        48.6750        40.8500       425.4214        45.0997         0.0000       246.0370         9.4900         2.9305        34.8500
      3739.650       248.9278       253.6190       0.239231        48.2750        37.2000       535.4187        45.6602         0.0000       254.6830         9.2400         2.8733        34.8500
      3739.800       254.8965       248.7930       0.195970        48.0250        36.2250       613.5637        48.1815         0.0000       312.6079         8.9900         2.8347        34.8750
      3739.950       256.5681       247.3960       0.127326        47.9000        38.2250       623.0764        57.5107         0.0000       401.7900         8.8600         2.8242        34.8250
      3740.100       249.3831       246.9515       0.055890        47.9000        42.5750       506.3547        66.9617         0.0000       459.1980         8.7800         2.8368        34.7250
      3740.250       239.9236       246.8245       0.004786        48.2000        47.6250       351.0903        66.1333         0.0000       500.0339         8.7500         2.8595        34.6000
      3740.400       235.5268       246.6340      -0.017105        48.8000        51.7750       269.8960        62.9422         0.0000       509.3311         8.7100         2.8798        34.5750
      3740.550       234.9228       246.6975      -0.022748        49.4250        54.7250       254.4873        69.8643         0.0000       467.7351         8.7300         2.8945        34.6750
      3740.700       234.9494       246.8880      -0.025591        49.8250        56.8500       255.5446        88.6413         0.0000       391.7419         8.7100         2.9080        34.7500
      3740.850       234.9752       246.8880      -0.028981        49.9750        58.1000       238.8933       109.0563         0.0000       355.6311         8.5000         2.9190        34.8000
      3741.000       234.9993       247.0150      -0.034163        50.0000        58.1250       235.7258       124.5560         0.0000       347.5359         8.3700         2.9202        34.9500
      3741.150       235.0219       247.1420      -0.040075        50.0000        57.1250       291.7915       141.6552         0.0000       347.5359         8.4200         2.9122        35.1500
      3741.300       235.0446       247.0785      -0.041673        50.0250        55.8000       478.6023       143.7688         0.0000       357.2729         8.6200         2.9085        35.3250
      3741.450       235.1963       246.8880      -0.034635        50.0500        54.6000      1135.1614       115.9108         0.0000       371.5349         8.8400         2.9227        35.4500
      3741.600       235.4777       246.6975      -0.020985        49.9750        53.4250     26445.2188        83.8055         0.0000       395.3660         8.7800         2.9540        35.6250
      3741.750       235.6316       246.6340      -0.005819        49.7250        52.1250     75619.3125        65.3085         3.0000       428.5491         8.5800         2.9853        35.8750
      3741.900       235.5283       246.5705       0.004009        49.3500        51.1000    100000.0000        55.1738         0.0000       476.4309         8.4900         2.9975        36.0750
      3742.050       235.1719       246.4435       0.002419        49.0750        51.1500    100000.0000        50.1675         0.0000       521.1951         8.5300         2.9850        36.2500
      3742.200       234.8167       246.3800      -0.005515        49.1000        52.4750    100000.0000        48.0235         0.0000       527.2300         8.6700         2.9587        36.4750
      3742.350       234.7155       246.4435      -0.010634        49.4750        54.0500    100000.0000        45.9290         0.0000       518.8000         8.7400         2.9373        36.6250
      3742.500       234.8082       246.5705      -0.011179        50.0750        54.7000     76238.6250        44.6760         0.0000       496.5920         8.6300         2.9325        36.5250
      3742.650       235.0264       246.7610      -0.008693        50.6000        54.7000     27889.2891        45.2457         0.0000       462.3811         8.3900         2.9418        36.4500
      3742.800       235.2403       246.9515      -0.004686        50.8500        55.4500      2288.0981        45.5822         0.0000       417.8301         8.1600         2.9522        36.6000
      3742.950       235.3257       247.0150      -0.001478        50.8500        57.4000      1008.3523        44.6787         0.0000       422.6680         8.0200         2.9545        36.7000
      3743.100       235.3472       246.9515       0.000208        50.7250        59.2500       653.8298        43.6302         0.0000       428.5491         8.1100         2.9480        36.7250
      3743.250       235.3698       246.8880       0.000171        50.5750        59.8000       585.0898        42.8110         0.0000       430.5271         8.5500         2.9368        36.7500
      3743.400       235.2661       246.8880      -0.001412        50.4500        59.6250       673.4817        41.8147         0.0000       426.5791         9.1400         2.9240        36.7250
