~Version Information Block
VERS .                 2.00:  CWLS LOG ASCII STANDARD - VERSION 2.00
WRAP .                   NO:  One line per depth step
~Well Information Block
#MNEM.UNIT        Data Type   Information
#---------- ----------------  -----------
STRT .M            3485.250:  START DEPTH
STOP .M            5334.750:  STOP DEPTH
STEP .M               0.150:  STEP
NULL .              -999.25:  NULL VALUE
COMP .                     :  COMPANY
WELL .            2-RI-1-PR:  WELL
FLD  .                     :  FIELD
LOC  .                     :  LOCATION
CTRY .                     :  COUNTRY
STAT .                     :  STATE
CNTY .                     :  COUNTY
SRVC .                     :  SERVICE COMPANY
DATE .                     :  DATE
API  .                     :  API NUMBER
UWI  .                     :  UNIQUE WELL ID
~Curve Information Block
#MNEM.UNIT         API CODE   Curve Description
#---------- ----------------  -----------------
DEPTH.M                    :  INDEX5513
CALI .MM                   :  Caliper
CALI .MM                   :  Caliper
DRHO .                     :  Bulk density correction
DT   .US/F                 :  Sonic delta-T
GR   .                     :  Gamma Ray
ILD  .                     :  Deep induction resistivity
ILM  .                     :  Medium induction resistivity
ITT  .                     :  Sonic Transit Time (Slowness)
LLD  .                     :  Deep laterolog resistivity
NPHI .%                    :  Neutron porosity
RHOB .                     :  Bulk density
SP   .                     :  Spontaneous potential
~Parameter Information Block
#MNEM.UNIT            Value   Description
#---------- ----------------  -----------
BS1  .              31 1/2":  Bit size 1
BS2  .              17 1/2":  Bit size 2
BS3  .              12 1/4":  Bit size 3
BSD1 .M                  83:  Total depth 1 measured by driller
BSD2 .M              1463.7:  Total depth 2 measured by driller
BSD3 .M              3491.8:  Total depth 3 measured by driller
CBD1 .M                82.5:  Casing shoe 1 - Driller depth
CBD2 .M              1460.3:  Casing shoe 2 - Driller depth
CBD3 .M              3491.5:  Casing shoe 3 - Driller depth
CS1  .                  20":  Casing shoe 1 - Casing size
CS2  .              13 3/8":  Casing shoe 2 - Casing size
CS3  .               9 5/8":  Casing shoe 3 - Casing size
CUR_INT_BOT.M              5334.9:  
EDF  .M               314.5:  Elevation of Drill Floor
EGL  .M               305.5:  Elevation of ground level
EKB  .M               314.8:  
QCCD .                 high:  Quality level of the Log data
QCCO .                     :  Company responsible for the Log quality control
QCDT .           1999/01/13:  Date of the Log quality control
QCRM .     carregado por Bucheb:  Comments on the Log quality
QCST .                final:  Status of the Log quality
TAPE_NAME.     2RI__0001__PR_2RI__0001__PR.dlis:  
PROJECT.             Mestrado:  
SET  .                 WIRE:  
~Other Information Block
REMARKS:
R1: VIDE DEMAIS ATRIBUTOS DE CABECALHO (LOG HEADER) NO FILE CORRESPONDENTE

R1: VIDE DEMAIS ATRIBUTOS DE CABECALHO (LOG HEADER) NO FILE CORRESPONDENTE

R1: VIDE DEMAIS ATRIBUTOS DE CABECALHO (LOG HEADER) NO FILE CORRESPONDENTE

TOOL_TABLE:
TOOL #0:
NAME:            FROM__CDN
DESCRIPTION:     OH WIRELINE
TRADEMARK-NAME:  FROM  CDN
GENERIC-NAME:    OH WIRELINE
STATUS:          TRUE
TOOL #0:
NAME:            FROM__BCS
DESCRIPTION:     OH WIRELINE
TRADEMARK-NAME:  FROM  BCS
GENERIC-NAME:    OH WIRELINE
STATUS:          TRUE
TOOL #0:
NAME:            FROM__DIL
DESCRIPTION:     OH WIRELINE
TRADEMARK-NAME:  FROM  DIL
GENERIC-NAME:    OH WIRELINE
STATUS:          TRUE
# 
~A       DEPTH           CALI           CALI           DRHO             DT             GR            ILD            ILM            ITT            LLD           NPHI           RHOB             SP 
# ...
      4348.350       235.2682       242.5700      -0.023288        47.8250        39.4000    100000.0000    100000.0000         0.0000      1981.5281         8.1000         2.9847        58.1000
      4348.500       235.3132       242.4430      -0.019237        47.8750        40.3000    100000.0000    100000.0000         0.0000      1981.5281         7.9600         2.9940        58.1500
      4348.650       235.4962       242.3160      -0.018232        47.8750        41.2250    100000.0000    100000.0000         0.0000      1981.5281         7.6800         2.9932        58.0000
      4348.800       235.5414       242.5065      -0.017480        47.7750        41.8500    100000.0000    100000.0000         1.0000      1981.5281         7.3600         2.9875        58.0000
      4348.950       235.5712       242.8240      -0.013171        47.6000        42.6750    100000.0000    100000.0000         0.0000      1981.5281         7.0600         2.9845        58.2000
      4349.100       235.7079       242.8875      -0.007085        47.3750        44.0000    100000.0000    100000.0000         0.0000      1981.5281         6.7600         2.9862        58.3250
      4349.250       235.8521       242.8240      -0.003286        47.1500        44.9250    100000.0000    100000.0000         0.0000      1981.5281         6.5300         2.9880        58.4250
      4349.400       236.0156       242.8240      -0.002283        47.0500        44.5500    100000.0000    100000.0000         0.0000      1981.5281         6.3900         2.9843        58.5750
      4349.550       236.0569       242.8240      -0.003565        47.1000        43.3000    100000.0000    100000.0000         0.0000      1981.5281         6.3100         2.9750        58.7250
      4349.700       235.9720       242.8875      -0.006116        47.1750        42.2250    100000.0000    100000.0000         0.0000      1981.5281         6.2100         2.9657        58.8500
      4349.850       235.9720       242.8875      -0.006116        47.2500        42.2250    100000.0000    100000.0000         0.0000      1981.5281         6.0800         2.9657        58.8500
      4350.000       235.8911       242.9510      -0.008160        47.4250        41.9250    100000.0000    100000.0000         0.0000      1981.5281         5.8900         2.9615        58.9000
      4350.150       235.9403       242.9510      -0.009441        47.6250        42.5500    100000.0000    100000.0000         0.0000      1981.5281         5.7500         2.9627        58.9250
      4350.300       236.0923       243.0145      -0.009453        47.7250        43.9250    100000.0000    100000.0000         0.0000      1803.0171         5.8200         2.9677        58.9750
      4350.450       236.0950       243.0780      -0.007940        47.8250        45.4000    100000.0000    100000.0000         0.0000      1577.6111         6.2600         2.9733        58.9750
      4350.600       235.9948       243.0780      -0.006426        47.9500        46.4000    100000.0000    100000.0000         0.0000      1577.6111         6.9500         2.9727        58.9500
      4350.750       235.9809       243.0145      -0.008468        48.0250        46.9000    100000.0000    100000.0000         0.0000      1577.6111         7.6400         2.9615        58.9750
      4350.900       236.0929       243.0145      -0.016356        48.0750        46.8750    100000.0000     75405.4375         0.0000      1577.6111         8.0600         2.9425        59.0750
      4351.050       236.1896       243.2050      -0.025261        48.0750        46.0500    100000.0000     26418.9570         0.0000      1757.9241         8.0400         2.9250        59.2250
      4351.200       236.1488       243.4590      -0.029590        48.0250        44.7250    100000.0000     26621.5547         0.0000      1981.5281         7.5800         2.9175        59.3250
      4351.350       236.0679       243.7130      -0.028585        48.0000        43.8500    100000.0000     75608.0000         0.0000      1981.5281         6.9800         2.9212        59.3750
      4351.500       236.1245       243.8400      -0.024279        48.0000        43.7250    100000.0000    100000.0000         0.0000      1981.5281         6.5900         2.9307        59.4000
      4351.650       236.5403       243.8400      -0.019970        48.0250        43.7750    100000.0000    100000.0000         0.0000      1967.8860         6.5200         2.9400        59.4500
      4351.800       237.2006       243.8400      -0.015915        48.1000        43.5750    100000.0000    100000.0000         0.0000      1954.3401         6.7200         2.9462        59.6000
      4351.950       237.8685       243.8400      -0.012371        48.2250        43.4000    100000.0000    100000.0000         0.0000      1954.3401         7.0500         2.9492        59.7000
      4352.100       238.7734       243.8400      -0.011619        48.3750        43.6750    100000.0000    100000.0000         0.0000      1954.3401         7.3000         2.9495        59.6750
      4352.250       239.6628       243.9035      -0.014676        48.4250        44.2750    100000.0000    100000.0000         0.0000      1958.8440         7.4300         2.9490        59.7000
      4352.400       239.9487       243.9670      -0.020530        48.2750        44.7250    100000.0000    100000.0000         0.0000      1972.4221         7.5100         2.9530        59.7750
      4352.550       239.7532       243.9035      -0.025116        48.0750        44.6500    100000.0000    100000.0000         0.0000      1981.5281         7.5000         2.9647        59.7500
      4352.700       239.2978       243.8400      -0.025127        48.0000        44.1250    100000.0000    100000.0000         0.0000      1981.5281         7.4200         2.9788        59.7250
      4352.850       238.5748       243.9670      -0.021582        48.0000        43.8750    100000.0000    100000.0000         0.0000      1981.5281         7.2600         2.9860        59.9000
      4353.000       237.8402       244.0940      -0.016765        48.0000        44.7000    100000.0000    100000.0000         0.0000      1981.5281         7.1100         2.9843        60.1250
      4353.150       237.4761       243.9670      -0.013220        48.0000        46.3500    100000.0000    100000.0000         0.0000      1981.5281         7.0400         2.9777        60.2000
      4353.300       237.3642       243.8400      -0.013233        48.0000        47.6000    100000.0000    100000.0000         0.0000      1981.5281         6.9100         2.9705        60.1500
      4353.450       237.2755       243.8400      -0.015783        48.0000        47.6250    100000.0000    100000.0000         0.0000      1981.5281         6.5200         2.9660        60.0500
      4353.600       237.1946       243.9035      -0.017318        48.0000        46.9000    100000.0000    100000.0000         0.0000      1981.5281         6.0500         2.9675        60.1000
      4353.750       237.0905       243.9670      -0.015045        48.0000        46.5000    100000.0000    100000.0000         0.0000      1981.5281         5.7600         2.9730        60.3250
      4353.900       236.9827       243.9035      -0.010991        48.0000        46.6250    100000.0000    100000.0000         0.0000      1981.5281         5.9400         2.9760        60.5000
      4354.050       236.8922       243.8400      -0.009986        48.0250        46.7750    100000.0000    100000.0000         0.0000      1981.5281         6.5500         2.9732        60.6250
      4354.200       236.8248       243.8400      -0.012793        48.1750        46.8500    100000.0000    100000.0000         0.0000      1981.5281         7.2700         2.9662        60.7250
      4354.350       236.8834       243.9035      -0.016869        48.4750        47.0500    100000.0000    100000.0000         0.0000      1981.5281         7.6700         2.9572        60.7750
      4354.500       237.0449       244.0305      -0.020436        48.7000        47.2750    100000.0000    100000.0000         0.0000      1981.5281         7.6200         2.9497        60.8250
