~Version Information Block
VERS .                 2.00:  CWLS LOG ASCII STANDARD - VERSION 2.00
WRAP .                   NO:  One line per depth step
~Well Information Block
#MNEM.UNIT        Data Type   Information
#---------- ----------------  -----------
STRT .M            3485.250:  START DEPTH
STOP .M            5334.750:  STOP DEPTH
STEP .M               0.150:  STEP
NULL .              -999.25:  NULL VALUE
COMP .                     :  COMPANY
WELL .            2-RI-1-PR:  WELL
FLD  .                     :  FIELD
LOC  .                     :  LOCATION
CTRY .                     :  COUNTRY
STAT .                     :  STATE
CNTY .                     :  COUNTY
SRVC .                     :  SERVICE COMPANY
DATE .                     :  DATE
API  .                     :  API NUMBER
UWI  .                     :  UNIQUE WELL ID
~Curve Information Block
#MNEM.UNIT         API CODE   Curve Description
#---------- ----------------  -----------------
DEPTH.M                    :  INDEX5513
CALI .MM                   :  Caliper
CALI .MM                   :  Caliper
DRHO .                     :  Bulk density correction
DT   .US/F                 :  Sonic delta-T
GR   .                     :  Gamma Ray
ILD  .                     :  Deep induction resistivity
ILM  .                     :  Medium induction resistivity
ITT  .                     :  Sonic Transit Time (Slowness)
LLD  .                     :  Deep laterolog resistivity
NPHI .%                    :  Neutron porosity
RHOB .                     :  Bulk density
SP   .                     :  Spontaneous potential
~Parameter Information Block
#MNEM.UNIT            Value   Description
#---------- ----------------  -----------
BS1  .              31 1/2":  Bit size 1
BS2  .              17 1/2":  Bit size 2
BS3  .              12 1/4":  Bit size 3
BSD1 .M                  83:  Total depth 1 measured by driller
BSD2 .M              1463.7:  Total depth 2 measured by driller
BSD3 .M              3491.8:  Total depth 3 measured by driller
CBD1 .M                82.5:  Casing shoe 1 - Driller depth
CBD2 .M              1460.3:  Casing shoe 2 - Driller depth
CBD3 .M              3491.5:  Casing shoe 3 - Driller depth
CS1  .                  20":  Casing shoe 1 - Casing size
CS2  .              13 3/8":  Casing shoe 2 - Casing size
CS3  .               9 5/8":  Casing shoe 3 - Casing size
CUR_INT_BOT.M              5334.9:  
EDF  .M               314.5:  Elevation of Drill Floor
EGL  .M               305.5:  Elevation of ground level
EKB  .M               314.8:  
QCCD .                 high:  Quality level of the Log data
QCCO .                     :  Company responsible for the Log quality control
QCDT .           1999/01/13:  Date of the Log quality control
QCRM .     carregado por Bucheb:  Comments on the Log quality
QCST .                final:  Status of the Log quality
TAPE_NAME.     2RI__0001__PR_2RI__0001__PR.dlis:  
PROJECT.             Mestrado:  
SET  .                 WIRE:  
~Other Information Block
REMARKS:
R1: VIDE DEMAIS ATRIBUTOS DE CABECALHO (LOG HEADER) NO FILE CORRESPONDENTE

R1: VIDE DEMAIS ATRIBUTOS DE CABECALHO (LOG HEADER) NO FILE CORRESPONDENTE

R1: VIDE DEMAIS ATRIBUTOS DE CABECALHO (LOG HEADER) NO FILE CORRESPONDENTE

TOOL_TABLE:
TOOL #0:
NAME:            FROM__CDN
DESCRIPTION:     OH WIRELINE
TRADEMARK-NAME:  FROM  CDN
GENERIC-NAME:    OH WIRELINE
STATUS:          TRUE
TOOL #0:
NAME:            FROM__BCS
DESCRIPTION:     OH WIRELINE
TRADEMARK-NAME:  FROM  BCS
GENERIC-NAME:    OH WIRELINE
STATUS:          TRUE
TOOL #0:
NAME:            FROM__DIL
DESCRIPTION:     OH WIRELINE
TRADEMARK-NAME:  FROM  DIL
GENERIC-NAME:    OH WIRELINE
STATUS:          TRUE
# 
~A       DEPTH           CALI           CALI           DRHO             DT             GR            ILD            ILM            ITT            LLD           NPHI           RHOB             SP 
# ...
      3611.250       220.9811       221.9325       0.022832        59.6250        54.6750        28.4217        26.5192         0.0000        60.5340         6.6700         2.5013        30.3000
      3611.400       220.9898       223.2025       0.022685        59.3250        53.7250        27.6247        28.1662         0.0000        60.3950         6.2400         2.4950        30.2250
      3611.550       221.0424       226.3140       0.021275        59.8250        52.7500        27.6438        28.1960         0.0000        57.9430         5.4600         2.4917        30.1000
      3611.700       221.1786       229.0445       0.017341        60.7000        51.3250        28.8357        27.1020         0.0000        48.1950         4.8500         2.4950        30.0500
      3611.850       221.3555       230.6320       0.013402        61.2750        48.6000        31.0475        26.4563         0.0000        36.3910         4.7300         2.5055        30.1500
      3612.000       221.4924       231.2035       0.013520        61.1000        45.0000        33.6438        27.1568         0.0000        37.2390         5.1200         2.5215        30.3250
      3612.150       221.5466       231.2670       0.018444        60.2500        42.1500        35.8112        28.8757         0.0000        45.4990         5.8100         2.5382        30.4000
      3612.300       221.5560       230.6320       0.024343        59.2000        40.8250        37.4478        30.5472         0.0000        54.0750         6.3100         2.5500        30.4000
      3612.450       221.5640       229.2350       0.029737        58.3750        39.9250        39.5882        31.7785         0.0000        74.3020         6.1900         2.5553        30.3500
      3612.600       221.5717       227.9015       0.034143        57.8250        38.4500        42.8118        32.7782         0.0000        96.3830         5.4600         2.5577        30.2500
      3612.750       221.4521       226.6315       0.035262        57.3500        37.2500        46.2688        33.4990         0.0000       117.4900         4.4400         2.5605        30.1750
      3612.900       221.0810       224.9805       0.033600        56.8250        38.1000        49.1528        33.7095         0.0000       156.3150         3.4400         2.5608        30.1250
      3613.050       220.7122       223.0755       0.030914        56.4250        41.5500        50.5605        33.8890         0.0000       180.3020         2.7500         2.5550        30.0750
      3613.200       220.5951       222.0595       0.028229        56.4500        46.7000        49.4388        35.4978         0.0000       169.4340         2.5700         2.5457        30.0250
      3613.350       220.6019       221.9325       0.027829        56.9750        52.3250        46.5110        38.3685         0.0000       149.6240         2.4500         2.5377        29.9500
      3613.500       220.7374       221.9325       0.032483        57.9000        56.8000        43.3530        39.8235         0.0000       126.4740         2.3200         2.5315        29.9000
      3613.650       221.1295       222.8850       0.039166        59.1000        58.4750        40.4162        38.3802         0.0000        80.5380         2.2000         2.5240        29.9750
      3613.800       221.5208       224.7900       0.042309        60.2750        56.8750        37.9810        35.0615         0.0000        48.6410         2.2400         2.5155        30.1500
      3613.950       221.6569       226.4410       0.042915        61.1500        53.1750        36.6268        31.3297         0.0000        41.0200         2.5400         2.5118        30.2500
      3614.100       221.6649       227.2665       0.045788        61.7500        49.5750        36.0590        28.5475         0.0000        37.4110         3.5200         2.5175        30.2000
      3614.250       221.6718       227.5205       0.055988        62.0750        47.6250        35.7075        27.3395         0.0000        36.4750         4.9500         2.5308        30.1750
      3614.400       221.6806       227.7110       0.072756        61.9750        47.2750        35.5630        27.0552         0.0000        39.0840         6.0000         2.5442        30.2000
      3614.550      -999.2500      -999.2500    -999.250000      -999.2500      -999.2500      -999.2500      -999.2500      -999.2500      -999.2500      -999.2500      -999.2500      -999.2500
      3614.700       221.6913       228.1555       0.089280        61.4750        47.6500        35.6452        26.9157         0.0000        42.7560         6.3800         2.5512        30.1750
      3614.850       221.7012       228.6635       0.100507        60.8500        48.1500        35.9345        26.6545         0.0000        46.1320         6.1700         2.5495        30.1500
      3615.000       221.7103       228.7905       0.102627        60.3500        48.9750        36.6512        26.3792         0.0000        48.5290         5.6500         2.5425        30.2000
      3615.150       221.7180       228.6635       0.094640        60.0750        50.9500        37.9475        26.3947         0.0000        50.5820         5.0800         2.5363        30.3250
      3615.300       221.7253       228.6000       0.077573        59.9000        54.8750        39.1582        27.1170         0.0000        53.0880         4.6700         2.5347        30.6000
      3615.450       221.7341       228.6000       0.055962        59.4500        60.4000        39.5825        29.5488         0.0000        62.5170         4.4700         2.5393        31.0000
      3615.600       221.4892       228.6000       0.036618        58.5500        65.5500        39.2682        34.6418         0.0000        99.5400         4.3700         2.5475        31.2750
      3615.750       220.9908       228.6000       0.021066        57.5000        68.3000        38.5745        41.1205         1.0000       137.0880         4.0700         2.5535        31.4500
      3615.900       220.7455       228.4095       0.009557        56.6750        68.2000        38.3508        45.2387         0.0000       150.6610         3.5000         2.5527        31.6750
      3616.050       221.1353       228.2190       0.002845        56.2000        66.2000        39.1862        45.9252         0.0000       155.9550         2.8600         2.5475        31.8500
      3616.200       222.0339       228.5365       0.001196        56.1000        63.7750        41.0052        44.7385         0.0000       165.5770         2.6200         2.5425        32.0000
      3616.350       222.8051       228.9810       0.003844        56.4000        62.6750        43.1527        41.0423         0.0000       154.8820         2.5500         2.5385        32.2500
      3616.500       223.1952       229.0445       0.008737        57.0000        64.3500        44.6742        35.6942         0.0000       134.2760         2.5600         2.5340        32.5250
      3616.650       223.0773       228.3460       0.017156        57.6000        68.1250        45.4482        31.4875         0.0000       128.5290         2.5900         2.5295        32.8500
      3616.800       222.4515       226.8220       0.032662        57.9500        70.7500        45.5525        28.9080         0.0000       126.4740         2.6100         2.5262        33.1750
      3616.950       221.5721       225.4250       0.056016        58.2000        69.1500        44.1270        26.8352         0.0000       106.1700         2.6300         2.5240        33.4000
      3617.100       220.5665       224.9170       0.077851        58.6750        63.7000        41.2505        24.6662         0.0000        77.4460         2.6300         2.5223        33.6500
      3617.250       219.8132       226.4410       0.089556        59.4500        58.0750        39.0513        22.9292         0.0000        58.7490         2.6700         2.5215        33.9750
      3617.400       219.4403       229.8700       0.095960        60.4000        55.5750        38.5040        22.4970         0.0000        47.7530         2.9400         2.5227        34.3000
