~Version Information Block
VERS .                 2.00:  CWLS LOG ASCII STANDARD - VERSION 2.00
WRAP .                   NO:  One line per depth step
~Well Information Block
#MNEM.UNIT        Data Type   Information
#---------- ----------------  -----------
STRT .M            3485.250:  START DEPTH
STOP .M            5334.750:  STOP DEPTH
STEP .M               0.150:  STEP
NULL .              -999.25:  NULL VALUE
COMP .                     :  COMPANY
WELL .            2-RI-1-PR:  WELL
FLD  .                     :  FIELD
LOC  .                     :  LOCATION
CTRY .                     :  COUNTRY
STAT .                     :  STATE
CNTY .                     :  COUNTY
SRVC .                     :  SERVICE COMPANY
DATE .                     :  DATE
API  .                     :  API NUMBER
UWI  .                     :  UNIQUE WELL ID
~Curve Information Block
#MNEM.UNIT         API CODE   Curve Description
#---------- ----------------  -----------------
DEPTH.M                    :  INDEX5513
CALI .MM                   :  Caliper
CALI .MM                   :  Caliper
DRHO .                     :  Bulk density correction
DT   .US/F                 :  Sonic delta-T
GR   .                     :  Gamma Ray
ILD  .                     :  Deep induction resistivity
ILM  .                     :  Medium induction resistivity
ITT  .                     :  Sonic Transit Time (Slowness)
LLD  .                     :  Deep laterolog resistivity
NPHI .%                    :  Neutron porosity
RHOB .                     :  Bulk density
SP   .                     :  Spontaneous potential
~Parameter Information Block
#MNEM.UNIT            Value   Description
#---------- ----------------  -----------
BS1  .              31 1/2":  Bit size 1
BS2  .              17 1/2":  Bit size 2
BS3  .              12 1/4":  Bit size 3
BSD1 .M                  83:  Total depth 1 measured by driller
BSD2 .M              1463.7:  Total depth 2 measured by driller
BSD3 .M              3491.8:  Total depth 3 measured by driller
CBD1 .M                82.5:  Casing shoe 1 - Driller depth
CBD2 .M              1460.3:  Casing shoe 2 - Driller depth
CBD3 .M              3491.5:  Casing shoe 3 - Driller depth
CS1  .                  20":  Casing shoe 1 - Casing size
CS2  .              13 3/8":  Casing shoe 2 - Casing size
CS3  .               9 5/8":  Casing shoe 3 - Casing size
CUR_INT_BOT.M              5334.9:  
EDF  .M               314.5:  Elevation of Drill Floor
EGL  .M               305.5:  Elevation of ground level
EKB  .M               314.8:  
QCCD .                 high:  Quality level of the Log data
QCCO .                     :  Company responsible for the Log quality control
QCDT .           1999/01/13:  Date of the Log quality control
QCRM .     carregado por Bucheb:  Comments on the Log quality
QCST .                final:  Status of the Log quality
TAPE_NAME.     2RI__0001__PR_2RI__0001__PR.dlis:  
PROJECT.             Mestrado:  
SET  .                 WIRE:  
~Other Information Block
REMARKS:
R1: VIDE DEMAIS ATRIBUTOS DE CABECALHO (LOG HEADER) NO FILE CORRESPONDENTE

R1: VIDE DEMAIS ATRIBUTOS DE CABECALHO (LOG HEADER) NO FILE CORRESPONDENTE

R1: VIDE DEMAIS ATRIBUTOS DE CABECALHO (LOG HEADER) NO FILE CORRESPONDENTE

TOOL_TABLE:
TOOL #0:
NAME:            FROM__CDN
DESCRIPTION:     OH WIRELINE
TRADEMARK-NAME:  FROM  CDN
GENERIC-NAME:    OH WIRELINE
STATUS:          TRUE
TOOL #0:
NAME:            FROM__BCS
DESCRIPTION:     OH WIRELINE
TRADEMARK-NAME:  FROM  BCS
GENERIC-NAME:    OH WIRELINE
STATUS:          TRUE
TOOL #0:
NAME:            FROM__DIL
DESCRIPTION:     OH WIRELINE
TRADEMARK-NAME:  FROM  DIL
GENERIC-NAME:    OH WIRELINE
STATUS:          TRUE
# 
~A       DEPTH           CALI           CALI           DRHO             DT             GR            ILD            ILM            ITT            LLD           NPHI           RHOB             SP 
# ...
      4468.050       237.0803       259.9690       0.157388        51.2500        65.6250     75353.1250        44.2055         0.0000       248.3130         8.8200         2.8888        51.1500
      4468.200       237.0845       260.1595       0.149624        50.8500        64.0000    100000.0000        45.6375         0.0000       234.4230         8.3100         2.8950        51.3000
      4468.350       237.0882       260.2230       0.139090        50.7000        63.1000    100000.0000        48.5462         0.0000       225.9430         8.0100         2.9100        51.4500
      4468.500       237.0915       260.1595       0.135658        50.7750        63.8000     76238.6250        47.5778         0.0000       224.3880         8.1200         2.9257        51.4000
      4468.650       237.0960       259.9690       0.143638        50.8500        65.2250     27830.3828        44.2600         0.0000       224.9060         8.3300         2.9338        51.3000
      4468.800       237.1014       259.8420       0.155425        50.8500        66.0750      2298.0269        42.8565         0.0000       232.8090         8.2300         2.9312        51.3500
      4468.950       237.1060       259.8420       0.160856        50.9000        66.2250      1236.3894        42.6593         0.0000       244.9060         7.7800         2.9218        51.4000
      4469.100       237.1100       259.7150       0.159691        50.9750        66.4250       852.6331        42.3163         0.0000       241.5460         7.3200         2.9100        51.4250
      4469.250       237.1140       259.5880       0.158029        51.0000        67.3750     25468.0391        42.8255         0.0000       242.6610         7.2100         2.8987        51.4000
      4469.400       237.1176       259.7150       0.160940        51.0000        69.1750     50764.8828        44.3855         0.0000       242.1030         7.5100         2.8910        51.3250
      4469.550       237.1218       259.8420       0.167652        51.0000        70.8750     26858.0664        44.6845         0.0000       246.6040         7.9400         2.8905        51.4000
      4469.700       237.1266       259.7150       0.174350        51.0000        70.8250      3096.6885        43.5665         0.0000       245.4710         8.3100         2.8970        51.5000
      4469.850       237.1312       259.5880       0.180034        51.0000        68.5250      3344.3110        43.6605         0.0000       260.0161         8.6600         2.9052        51.4750
      4470.000       237.1354       259.5880       0.181926        51.0000        65.5500      1879.5659        45.0970         0.0000       260.6150         9.1400         2.9117        51.4750
      4470.150       237.1395       259.5880       0.177734        51.0750        63.5750      1158.1143        45.1267         0.0000       251.7680         9.6800         2.9157        51.5250
      4470.300       237.1432       259.5880       0.167186        51.2750        62.5000      1737.3696        42.9827         0.0000       226.4650         9.9800         2.9150        51.5750
      4470.450       237.1467       259.5880       0.146495        51.4750        61.4000      1516.1431        41.6395         0.0000       228.0340         9.9200         2.9085        51.7000
      4470.600       237.1503       259.5880       0.120494        51.6000        60.1750     25734.1758        41.7112         0.0000       231.2060         9.6500         2.9020        51.9500
      4470.750       237.1552       259.5245       0.104125        51.6250        59.7500     75190.5000        41.4045         0.0000       242.1030         9.1800         2.9030        52.1500
      4470.900       237.1604       259.4610       0.101449        51.4500        61.2250    100000.0000        41.0260         0.0000       247.1720         8.5600         2.9100        52.3000
      4471.050       237.1642       259.4610       0.106387        51.2000        64.4750    100000.0000        41.5015         0.0000       251.1880         7.9200         2.9163        52.6500
      4471.200      -999.2500      -999.2500    -999.250000      -999.2500      -999.2500      -999.2500      -999.2500      -999.2500      -999.2500      -999.2500      -999.2500      -999.2500
      4471.350       237.0413       259.3975       0.117906        51.2000        67.5000    100000.0000        42.2197         0.0000       247.7420         7.5500         2.9200        53.1500
      4471.500       236.7932       259.3975       0.137283        51.5750        68.2000    100000.0000        42.9605         0.0000       266.0720         7.5400         2.9230        53.7000
      4471.650       236.6717       259.2705       0.156416        52.1500        66.7500    100000.0000        43.4585         0.0000       295.1211         7.7000         2.9235        54.3000
      4471.800       236.6760       258.9530       0.165410        52.5750        65.1000    100000.0000        42.9605         0.0000       323.5930         7.8600         2.9175        54.7500
      4471.950       236.6796       259.0165       0.164518        52.6000        64.5500    100000.0000        42.2677         0.0000       349.1399         7.9100         2.9065        54.9750
      4472.100       236.6863       259.3340       0.171324        52.0500        65.3500    100000.0000        40.3418         0.0000       365.5950         7.7000         2.8910        55.0500
      4472.250       236.6902       259.3340       0.188673        51.9250        65.7000    100000.0000        38.8350         0.0000       369.8279         7.7000         2.8847        55.0000
      4472.400       236.6940       259.3975       0.210848        51.8500        66.1000    100000.0000        39.9285         0.0000       388.1499         7.9500         2.8722        55.1000
      4472.550       236.6985       259.3975       0.229976        51.7000        66.8000    100000.0000        42.2908         1.0000       422.6680         8.4800         2.8545        55.2500
      4472.700       236.7037       259.2705       0.231858        51.5000        67.7250    100000.0000        43.8615         0.0000       456.0371         9.2500         2.8383        55.3000
      4472.850       236.7077       259.2705       0.212697        51.3000        68.6250    100000.0000        44.5180         0.0000       479.7329        10.0300         2.8302        55.3000
      4473.000       236.7118       259.3975       0.186189        51.1750        69.6250    100000.0000        43.9135         0.0000       493.1741        10.6600         2.8325        55.3500
      4473.150       236.7167       258.8895       0.158667        51.2750        70.8500    100000.0000        43.5152         0.0000       504.6609        10.7000         2.8405        55.4750
      4473.300       236.7209       257.2385       0.131394        51.5750        71.9500    100000.0000        45.9485         0.0000       515.2290        10.1900         2.8490        55.6250
      4473.450       236.7246       255.5875       0.112233        51.8250        72.4750    100000.0000        49.2122         0.0000       527.2300         9.5500         2.8588        55.8500
      4473.600       236.7284       254.7620       0.105248        51.8750        72.3000    100000.0000        49.2007         0.0000       539.5100         8.8100         2.8742        56.1000
      4473.750       236.7328       254.5080       0.107919        51.8750        71.5750    100000.0000        47.7930         0.0000       548.2759         8.1600         2.8945        56.2750
      4473.900       236.7381       254.5080       0.112359        52.0250        70.6500    100000.0000        48.2055         0.0000       550.8069         7.7700         2.9105        56.3750
      4474.050       236.7428       254.3175       0.111697        52.2750        69.8500    100000.0000        48.2530         0.0000       533.3340         7.6100         2.9160        56.4250
      4474.200       236.7469       254.1270       0.105703        52.4500        69.0500    100000.0000        46.5915         0.0000       498.8850         7.4700         2.9140        56.6000
