~Version Information Block
VERS .                 2.00:  CWLS LOG ASCII STANDARD - VERSION 2.00
WRAP .                   NO:  One line per depth step
~Well Information Block
#MNEM.UNIT        Data Type   Information
#---------- ----------------  -----------
STRT .M            3485.250:  START DEPTH
STOP .M            5334.750:  STOP DEPTH
STEP .M               0.150:  STEP
NULL .              -999.25:  NULL VALUE
COMP .                     :  COMPANY
WELL .            2-RI-1-PR:  WELL
FLD  .                     :  FIELD
LOC  .                     :  LOCATION
CTRY .                     :  COUNTRY
STAT .                     :  STATE
CNTY .                     :  COUNTY
SRVC .                     :  SERVICE COMPANY
DATE .                     :  DATE
API  .                     :  API NUMBER
UWI  .                     :  UNIQUE WELL ID
~Curve Information Block
#MNEM.UNIT         API CODE   Curve Description
#---------- ----------------  -----------------
DEPTH.M                    :  INDEX5513
CALI .MM                   :  Caliper
CALI .MM                   :  Caliper
DRHO .                     :  Bulk density correction
DT   .US/F                 :  Sonic delta-T
GR   .                     :  Gamma Ray
ILD  .                     :  Deep induction resistivity
ILM  .                     :  Medium induction resistivity
ITT  .                     :  Sonic Transit Time (Slowness)
LLD  .                     :  Deep laterolog resistivity
NPHI .%                    :  Neutron porosity
RHOB .                     :  Bulk density
SP   .                     :  Spontaneous potential
~Parameter Information Block
#MNEM.UNIT            Value   Description
#---------- ----------------  -----------
BS1  .              31 1/2":  Bit size 1
BS2  .              17 1/2":  Bit size 2
BS3  .              12 1/4":  Bit size 3
BSD1 .M                  83:  Total depth 1 measured by driller
BSD2 .M              1463.7:  Total depth 2 measured by driller
BSD3 .M              3491.8:  Total depth 3 measured by driller
CBD1 .M                82.5:  Casing shoe 1 - Driller depth
CBD2 .M              1460.3:  Casing shoe 2 - Driller depth
CBD3 .M              3491.5:  Casing shoe 3 - Driller depth
CS1  .                  20":  Casing shoe 1 - Casing size
CS2  .              13 3/8":  Casing shoe 2 - Casing size
CS3  .               9 5/8":  Casing shoe 3 - Casing size
CUR_INT_BOT.M              5334.9:  
EDF  .M               314.5:  Elevation of Drill Floor
EGL  .M               305.5:  Elevation of ground level
EKB  .M               314.8:  
QCCD .                 high:  Quality level of the Log data
QCCO .                     :  Company responsible for the Log quality control
QCDT .           1999/01/13:  Date of the Log quality control
QCRM .     carregado por Bucheb:  Comments on the Log quality
QCST .                final:  Status of the Log quality
TAPE_NAME.     2RI__0001__PR_2RI__0001__PR.dlis:  
PROJECT.             Mestrado:  
SET  .                 WIRE:  
~Other Information Block
REMARKS:
R1: VIDE DEMAIS ATRIBUTOS DE CABECALHO (LOG HEADER) NO FILE CORRESPONDENTE

R1: VIDE DEMAIS ATRIBUTOS DE CABECALHO (LOG HEADER) NO FILE CORRESPONDENTE

R1: VIDE DEMAIS ATRIBUTOS DE CABECALHO (LOG HEADER) NO FILE CORRESPONDENTE

TOOL_TABLE:
TOOL #0:
NAME:            FROM__CDN
DESCRIPTION:     OH WIRELINE
TRADEMARK-NAME:  FROM  CDN
GENERIC-NAME:    OH WIRELINE
STATUS:          TRUE
TOOL #0:
NAME:            FROM__BCS
DESCRIPTION:     OH WIRELINE
TRADEMARK-NAME:  FROM  BCS
GENERIC-NAME:    OH WIRELINE
STATUS:          TRUE
TOOL #0:
NAME:            FROM__DIL
DESCRIPTION:     OH WIRELINE
TRADEMARK-NAME:  FROM  DIL
GENERIC-NAME:    OH WIRELINE
STATUS:          TRUE
# 
~A       DEPTH           CALI           CALI           DRHO             DT             GR            ILD            ILM            ITT            LLD           NPHI           RHOB             SP 
# ...
      5324.850       255.9039       238.9449       0.167027        52.3066       126.3366      2027.0811        45.4288         0.0000      1907.1550         8.1353         2.2628        42.3530
      5325.000       255.8239       235.6621       0.170573        52.2217       124.4650      2028.5801        81.8733         0.0000      1998.7781         8.2340         2.2623        42.1708
      5325.150       255.6218       237.6715       0.171328        52.0376       121.3942      2029.9548       574.0186         0.0000      2018.0344         8.2411         2.2620        42.2841
      5325.300       255.5494       244.4684       0.171270        51.8277       118.2488      1790.1321      1519.3335         0.0000      2019.3354         8.1728         2.2628        42.5487
      5325.450       255.4770       250.2570       0.171719        51.6661       116.0031      1270.3794      1524.7456         0.0000      2020.8259         8.1063         2.2648        42.8644
      5325.600       255.2889       250.6286       0.173218        51.6567       114.7321       867.1992       558.8855         0.0000      2021.3828         8.1000         2.2680        43.1270
      5325.750       255.2252       246.5905       0.175741        51.8750       113.9861       706.9912        47.6815         1.0000      2003.7583         8.1535         2.2713        43.3387
      5325.900       255.2684       240.7882       0.178508        52.2182       113.3149      1037.1108        32.8215         0.0000      1914.5505         8.2827         2.2738        43.5538
      5326.050       255.3117       234.1032       0.180514        52.4725       111.8936      1721.3953        36.6835         0.0000      1812.6956         8.4422         2.2745        43.7197
      5326.200       255.3658       228.0481       0.180438        52.6003       108.8979      1829.1091       540.1592         0.0000      1716.4121         8.4651         2.2733        43.8849
      5326.350       255.4133       224.0100       0.177808        52.6540      -999.2500      1242.4275      1530.6619         0.0000      1701.6660         8.3062         2.2715        44.1992
      5326.500       255.4609       221.3578       0.173700        52.7086      -999.2500       714.1682      2022.6804         0.0000      1686.9197         8.0724         2.2707        44.5605
      5326.650       255.5172       219.4607       0.169837        52.9746      -999.2500       610.0278      2024.0510         0.0000      1703.0164         7.8087         2.2710        44.7230
      5326.800       254.9302       218.0667       0.166734        53.4158      -999.2500      1012.4651      1614.1624         0.0000      1801.5298         7.5589         2.2717        44.6896
      5326.950       252.5662       217.1781       0.165172        53.6580      -999.2500      1689.2266       904.3252         0.0000      1818.5505         7.4600         2.2727        44.7571
      5327.100       250.3480       216.7952       0.165638        53.3235      -999.2500      2011.9121      1007.5352         0.0000      1770.0845         7.7564         2.2735        44.9752
      5327.250       250.7902       216.7885       0.167645        52.5867      -999.2500      2013.5857      1688.0171         0.0000      1644.9915         8.7190         2.2732        45.0909
      5327.400       253.7423       217.1578       0.169905        52.2261      -999.2500      2015.0750      1501.8503         0.0000      1446.6104         9.9234         2.2709        45.1043
      5327.550       257.0761       217.5282       0.169339        52.3930      -999.2500      2016.3171       563.3987         0.0000      1332.0405        10.6748         2.2679        45.1692
      5327.700      -999.2500      -999.2500    -999.250000      -999.2500      -999.2500      -999.2500      -999.2500      -999.2500      -999.2500      -999.2500      -999.2500      -999.2500
      5327.850       262.5685       217.3967       0.165222        52.5349      -999.2500      2017.8076        58.2733         0.0000      1226.8840        11.0321         2.2669        45.2354
      5328.000       274.6397       216.7606       0.160616        52.5256      -999.2500      2019.4861        24.5463         0.0000      1216.0732        11.1465         2.2684        45.0040
      5328.150       283.9306       216.3754       0.158555        53.2437      -999.2500      2020.8547        22.4905         0.0000      1228.1282        10.8670         2.2712        44.5258
      5328.300       283.3502       216.8735       0.159022        56.1935      -999.2500      2022.2251        27.1306         0.0000      1251.9065         9.9962         2.2724        44.2428
      5328.450       275.4299       217.8759       0.159742        60.3216      -999.2500      2023.7827        47.0789         0.0000      1252.4824         8.7464         2.2711        44.3070
      5328.600       258.2750       218.6240       0.159719        61.7918      -999.2500      2025.1533       557.6140         0.0000      1219.1021         7.4966         2.2711        44.6241
      5328.750       238.3355       218.8682       0.159416        59.1744      -999.2500      1575.3521      1528.6316         0.0000      1175.3979         6.2917         2.2759        45.0382
      5328.900       227.2513       218.6104       0.159375        55.3026      -999.2500       666.0872      1540.4810         0.0000      1122.9648         5.3597         2.2839        45.4977
      5329.050       226.6773       218.1011       0.161146        53.4118      -999.2500       341.3079       584.9395         0.0000      1034.1240         4.9742         2.2899        46.0569
      5329.200       229.3981       217.7962       0.166205        53.1757      -999.2500       935.7083        61.2197         0.0000       926.3345         4.9816         2.2907        46.5679
      5329.350       229.8273       217.8140       0.172252        52.9901      -999.2500      1714.7883        24.6979         0.0000       770.7834         5.0796         2.2882        46.8803
      5329.500       228.7323       217.8632       0.175500        52.6298      -999.2500      2034.2800        22.1322         0.0000       647.2927      -999.2500         2.2856        47.0937
      5329.650       227.8946       217.8257       0.175975        52.2440      -999.2500      2035.6577       528.7371         0.0000       579.8235      -999.2500         2.2841        47.3064
      5329.800       228.0773       217.7882       0.175663        52.0099      -999.2500      2037.0996      1538.7305         0.0000       553.9575      -999.2500         2.2856        47.7653
      5329.950       229.1518       217.7508       0.177100        52.0017      -999.2500      2038.6687      2038.9648         0.0000       580.4111      -999.2500         2.2929        48.5733
      5330.100       230.4727       217.7133       0.183900        52.2666      -999.2500      1707.0706      1654.8364         0.0000       673.0945      -999.2500         2.3065        49.1853
      5330.250       231.7894       217.6758       0.192999        52.6819      -999.2500      1357.0359       808.5515         0.0000       787.7363      -999.2500         2.3238        49.3506
      5330.400       232.8530       217.6383       0.195233        52.9496      -999.2500      1663.9033       225.7879         0.0000       872.2910      -999.2500         2.3228        49.2195
      5330.550       233.4108       217.6008       0.190627        53.0675      -999.2500      1998.3296        84.4874         0.0000       930.9558      -999.2500         2.2775        48.8402
      5330.700       233.5871       217.5633       0.188347        53.1087      -999.2500      2008.8853        99.0200         0.0000       957.6790      -999.2500         2.2100        48.3610
      5330.850       233.6347       217.5258       0.192174        53.0990      -999.2500      2010.4939       188.6867         0.0000       906.5627      -999.2500         2.1567        47.9326
      5331.000       233.5579       217.4883       0.198239        53.0639      -999.2500      2012.2285       380.5791         0.0000       827.1792      -999.2500         2.1290        47.7001
