~Version Information Block
VERS .                 2.00:  CWLS LOG ASCII STANDARD - VERSION 2.00
WRAP .                   NO:  One line per depth step
~Well Information Block
#MNEM.UNIT        Data Type   Information
#---------- ----------------  -----------
STRT .M            3485.250:  START DEPTH
STOP .M            5334.750:  STOP DEPTH
STEP .M               0.150:  STEP
NULL .              -999.25:  NULL VALUE
COMP .                     :  COMPANY
WELL .            2-RI-1-PR:  WELL
FLD  .                     :  FIELD
LOC  .                     :  LOCATION
CTRY .                     :  COUNTRY
STAT .                     :  STATE
CNTY .                     :  COUNTY
SRVC .                     :  SERVICE COMPANY
DATE .                     :  DATE
API  .                     :  API NUMBER
UWI  .                     :  UNIQUE WELL ID
~Curve Information Block
#MNEM.UNIT         API CODE   Curve Description
#---------- ----------------  -----------------
DEPTH.M                    :  INDEX5513
CALI .MM                   :  Caliper
CALI .MM                   :  Caliper
DRHO .                     :  Bulk density correction
DT   .US/F                 :  Sonic delta-T
GR   .                     :  Gamma Ray
ILD  .                     :  Deep induction resistivity
ILM  .                     :  Medium induction resistivity
ITT  .                     :  Sonic Transit Time (Slowness)
LLD  .                     :  Deep laterolog resistivity
NPHI .%                    :  Neutron porosity
RHOB .                     :  Bulk density
SP   .                     :  Spontaneous potential
~Parameter Information Block
#MNEM.UNIT            Value   Description
#---------- ----------------  -----------
BS1  .              31 1/2":  Bit size 1
BS2  .              17 1/2":  Bit size 2
BS3  .              12 1/4":  Bit size 3
BSD1 .M                  83:  Total depth 1 measured by driller
BSD2 .M              1463.7:  Total depth 2 measured by driller
BSD3 .M              3491.8:  Total depth 3 measured by driller
CBD1 .M                82.5:  Casing shoe 1 - Driller depth
CBD2 .M              1460.3:  Casing shoe 2 - Driller depth
CBD3 .M              3491.5:  Casing shoe 3 - Driller depth
CS1  .                  20":  Casing shoe 1 - Casing size
CS2  .              13 3/8":  Casing shoe 2 - Casing size
CS3  .               9 5/8":  Casing shoe 3 - Casing size
CUR_INT_BOT.M              5334.9:  
EDF  .M               314.5:  Elevation of Drill Floor
EGL  .M               305.5:  Elevation of ground level
EKB  .M               314.8:  
QCCD .                 high:  Quality level of the Log data
QCCO .                     :  Company responsible for the Log quality control
QCDT .           1999/01/13:  Date of the Log quality control
QCRM .     carregado por Bucheb:  Comments on the Log quality
QCST .                final:  Status of the Log quality
TAPE_NAME.     2RI__0001__PR_2RI__0001__PR.dlis:  
PROJECT.             Mestrado:  
SET  .                 WIRE:  
~Other Information Block
REMARKS:
R1: VIDE DEMAIS ATRIBUTOS DE CABECALHO (LOG HEADER) NO FILE CORRESPONDENTE

R1: VIDE DEMAIS ATRIBUTOS DE CABECALHO (LOG HEADER) NO FILE CORRESPONDENTE

R1: VIDE DEMAIS ATRIBUTOS DE CABECALHO (LOG HEADER) NO FILE CORRESPONDENTE

TOOL_TABLE:
TOOL #0:
NAME:            FROM__CDN
DESCRIPTION:     OH WIRELINE
TRADEMARK-NAME:  FROM  CDN
GENERIC-NAME:    OH WIRELINE
STATUS:          TRUE
TOOL #0:
NAME:            FROM__BCS
DESCRIPTION:     OH WIRELINE
TRADEMARK-NAME:  FROM  BCS
GENERIC-NAME:    OH WIRELINE
STATUS:          TRUE
TOOL #0:
NAME:            FROM__DIL
DESCRIPTION:     OH WIRELINE
TRADEMARK-NAME:  FROM  DIL
GENERIC-NAME:    OH WIRELINE
STATUS:          TRUE
# 
~A       DEPTH           CALI           CALI           DRHO             DT             GR            ILD            ILM            ITT            LLD           NPHI           RHOB             SP 
# ...
      4959.450       217.8996       229.1080      -0.033622        48.2000        41.0250    100000.0000        53.9540         0.0000       618.0161        16.3800         2.9888        36.3000
      4959.600       218.6327       229.2350      -0.031895        48.0250        41.4250     75825.8750        52.9457         0.0000       669.8850        16.3800         2.9897        36.4750
      4959.750       219.3658       229.1080      -0.029398        48.0750        42.5500     51651.8516        50.2185         0.0000       801.6770        16.9300         2.9885        36.5000
      4959.900       220.2252       228.9810      -0.025638        48.3000        43.4500     75825.8750        47.5493         0.0000       933.2539        17.4700         2.9825        36.4750
      4960.050       220.9611       229.0445      -0.021885        48.6000        42.8750    100000.0000        52.8403         0.0000      1004.6160        17.7800         2.9730        36.3750
      4960.200       221.0659       229.0445      -0.021181        48.8250        40.8750    100000.0000        70.5865         0.0000       984.0120        18.0500         2.9607        36.3500
      4960.350       220.6630       228.9810      -0.023789        48.8250        39.2750    100000.0000        85.1413         0.0000       941.8899        18.5000         2.9490        36.4500
      4960.500       220.1366       228.9810      -0.026397        48.6250        39.8000    100000.0000        80.8580         0.0000       954.9929        18.9000         2.9445        36.4500
      4960.650       219.7356       228.9175      -0.024923        48.5000        41.8750    100000.0000        71.8672         0.0000      1076.4641        19.0200         2.9505        36.3250
      4960.800       219.5833       228.7905      -0.017602        48.6750        43.6250    100000.0000        71.0182         0.0000      1205.0349        19.2700         2.9613        36.1500
      4960.950       219.5609       228.6635      -0.004193        49.0750        44.5000    100000.0000        70.9768         0.0000      1224.6150        20.5000         2.9668        36.0000
      4961.100       219.6694       228.6000       0.010227        49.4750        45.2250    100000.0000        67.4618         0.0000      1193.9871        24.8100         2.9612        35.9750
      4961.250       220.2819       228.6635       0.016779        49.7000        45.6750    100000.0000        64.8318         0.0000      1122.0181        29.7500         2.9480        36.0750
      4961.400       221.5217       228.7270       0.017737        49.6250        44.9250    100000.0000        65.3638         0.0000       948.4180        32.2700         2.9397        36.3250
      4961.550       223.1376       228.6635       0.018690        49.3500        43.1000    100000.0000        66.0500         0.0000       864.9680        31.7800         2.9482        36.7000
      4961.700       224.8805       228.7270       0.019653        49.0750        41.4750    100000.0000        62.1130         0.0000       928.9661        30.5900         2.9688        36.9750
      4961.850       226.3757       228.9810       0.022143        48.7500        41.0000    100000.0000        55.6340         0.0000      1020.9390        30.9200         2.9850        37.1250
      4962.000       227.3650       229.2350       0.024117        48.3750        41.4250    100000.0000        54.1420         0.0000      1150.8000        33.0400         2.9895        37.1750
      4962.150       227.8456       229.5525       0.021517        48.1250        41.7000    100000.0000        57.2782         0.0000      1364.5830        35.1400         2.9885        37.0250
      4962.300       227.6952       229.7430       0.015103        48.0250        41.0500    100000.0000        59.9965         0.0000      1513.5601        34.7400         2.9905        36.8500
      4962.450       227.0417       229.5525       0.007925        47.9750        39.8000    100000.0000        60.9193         0.0000      1606.9409        31.6200         2.9972        36.7750
      4962.600       226.3882       229.2350       0.003299        47.9000        39.1750    100000.0000        61.2357         0.0000      1633.0520        27.8300         3.0050        36.7750
      4962.750       225.9844       229.1080      -0.001578        47.8250        39.8750    100000.0000        59.8767         0.0000      1614.3569        24.9000         3.0087        36.9250
      4962.900       225.8377       229.0445      -0.010528        47.8000        41.0750    100000.0000        56.2557         0.0000      1606.9409        22.4900         3.0048        37.1000
      4963.050       225.9443       228.9175      -0.019985        47.7750        41.5500    100000.0000        54.3002         3.0000      1606.9409        20.4400         2.9943        37.2500
      4963.200       226.2987       228.8540      -0.024372        47.7750        41.2500    100000.0000        55.2527         0.0000      1581.2471        19.3700         2.9833        37.5500
      4963.350       226.7804       228.8540      -0.022412        47.8750        40.9250    100000.0000        56.4975         0.0000      1584.8921        18.5000         2.9780        37.9500
      4963.500       227.3242       228.8540      -0.018146        47.9750        40.7750    100000.0000        56.7222         0.0000      1559.5510        17.4500         2.9825        38.2750
      4963.650       227.9942       228.7905      -0.013617        48.0000        40.3250    100000.0000        56.8240         0.0000      1524.0510        16.2000         2.9942        38.4750
      4963.800       228.6669       228.7905      -0.011132        48.0000        39.3750    100000.0000        57.8532         0.0000      1524.0510        15.3800         3.0037        38.7250
      4963.950       229.0901       228.7270      -0.014497        48.0000        38.2750    100000.0000        59.0582         0.0000      1534.6160        15.4000         3.0030        39.0500
      4964.100       229.1958       228.7905      -0.021673        48.0000        37.5250    100000.0000        59.2615         0.0000      1555.9651        16.1500         2.9940        39.3750
      4964.250       229.2979       228.8540      -0.027828        48.0000        37.7250    100000.0000        58.7520         0.0000      1577.6111        17.0000         2.9875        39.7750
      4964.400       229.6532       228.8540      -0.029918        48.0000        38.9750    100000.0000        58.6483         0.0000      1606.9409        17.5900         2.9910        40.1250
      4964.550       229.6532       228.8540      -0.029918        48.0000        38.9750    100000.0000        58.6483         0.0000      1606.9409        17.6400         2.9910        40.1250
      4964.700       230.0086       228.9175      -0.028713        48.0250        40.2500    100000.0000        59.0895         0.0000      1555.9651        17.1600         3.0005        40.2250
      4964.850       230.1134       228.9810      -0.026736        48.0500        40.4750    100000.0000        60.0217         0.0000      1520.5459        16.3900         3.0060        40.3000
      4965.000       230.0920       228.9175      -0.026023        48.0250        39.5750    100000.0000        61.7858         0.0000      1503.1411        15.8700         3.0025        40.5500
      4965.150       230.0677       228.9175      -0.028372        48.0000        38.2500    100000.0000        63.1767         0.0000      1485.9351        15.7600         2.9930        40.8250
      4965.300       230.0463       228.9810      -0.032247        48.0000        38.2500    100000.0000        63.0265         0.0000      1458.8130        15.7500         2.9835        41.1750
      4965.450       230.0230       228.9810      -0.034584        48.0000        37.2500    100000.0000        62.0915         0.0000      1462.1770        15.6200         2.9773        41.5500
      4965.600       229.9960       229.0445      -0.036418        48.0000        36.9500    100000.0000        61.5935         0.0000      1465.5491        15.5600         2.9720        41.8250
