~Version Information Block
VERS .                 2.00:  CWLS LOG ASCII STANDARD - VERSION 2.00
WRAP .                   NO:  One line per depth step
~Well Information Block
#MNEM.UNIT        Data Type   Information
#---------- ----------------  -----------
STRT .M            3485.250:  START DEPTH
STOP .M            5334.750:  STOP DEPTH
STEP .M               0.150:  STEP
NULL .              -999.25:  NULL VALUE
COMP .                     :  COMPANY
WELL .            2-RI-1-PR:  WELL
FLD  .                     :  FIELD
LOC  .                     :  LOCATION
CTRY .                     :  COUNTRY
STAT .                     :  STATE
CNTY .                     :  COUNTY
SRVC .                     :  SERVICE COMPANY
DATE .                     :  DATE
API  .                     :  API NUMBER
UWI  .                     :  UNIQUE WELL ID
~Curve Information Block
#MNEM.UNIT         API CODE   Curve Description
#---------- ----------------  -----------------
DEPTH.M                    :  INDEX5513
CALI .MM                   :  Caliper
CALI .MM                   :  Caliper
DRHO .                     :  Bulk density correction
DT   .US/F                 :  Sonic delta-T
GR   .                     :  Gamma Ray
ILD  .                     :  Deep induction resistivity
ILM  .                     :  Medium induction resistivity
ITT  .                     :  Sonic Transit Time (Slowness)
LLD  .                     :  Deep laterolog resistivity
NPHI .%                    :  Neutron porosity
RHOB .                     :  Bulk density
SP   .                     :  Spontaneous potential
~Parameter Information Block
#MNEM.UNIT            Value   Description
#---------- ----------------  -----------
BS1  .              31 1/2":  Bit size 1
BS2  .              17 1/2":  Bit size 2
BS3  .              12 1/4":  Bit size 3
BSD1 .M                  83:  Total depth 1 measured by driller
BSD2 .M              1463.7:  Total depth 2 measured by driller
BSD3 .M              3491.8:  Total depth 3 measured by driller
CBD1 .M                82.5:  Casing shoe 1 - Driller depth
CBD2 .M              1460.3:  Casing shoe 2 - Driller depth
CBD3 .M              3491.5:  Casing shoe 3 - Driller depth
CS1  .                  20":  Casing shoe 1 - Casing size
CS2  .              13 3/8":  Casing shoe 2 - Casing size
CS3  .               9 5/8":  Casing shoe 3 - Casing size
CUR_INT_BOT.M              5334.9:  
EDF  .M               314.5:  Elevation of Drill Floor
EGL  .M               305.5:  Elevation of ground level
EKB  .M               314.8:  
QCCD .                 high:  Quality level of the Log data
QCCO .                     :  Company responsible for the Log quality control
QCDT .           1999/01/13:  Date of the Log quality control
QCRM .     carregado por Bucheb:  Comments on the Log quality
QCST .                final:  Status of the Log quality
TAPE_NAME.     2RI__0001__PR_2RI__0001__PR.dlis:  
PROJECT.             Mestrado:  
SET  .                 WIRE:  
~Other Information Block
REMARKS:
R1: VIDE DEMAIS ATRIBUTOS DE CABECALHO (LOG HEADER) NO FILE CORRESPONDENTE

R1: VIDE DEMAIS ATRIBUTOS DE CABECALHO (LOG HEADER) NO FILE CORRESPONDENTE

R1: VIDE DEMAIS ATRIBUTOS DE CABECALHO (LOG HEADER) NO FILE CORRESPONDENTE

TOOL_TABLE:
TOOL #0:
NAME:            FROM__CDN
DESCRIPTION:     OH WIRELINE
TRADEMARK-NAME:  FROM  CDN
GENERIC-NAME:    OH WIRELINE
STATUS:          TRUE
TOOL #0:
NAME:            FROM__BCS
DESCRIPTION:     OH WIRELINE
TRADEMARK-NAME:  FROM  BCS
GENERIC-NAME:    OH WIRELINE
STATUS:          TRUE
TOOL #0:
NAME:            FROM__DIL
DESCRIPTION:     OH WIRELINE
TRADEMARK-NAME:  FROM  DIL
GENERIC-NAME:    OH WIRELINE
STATUS:          TRUE
# 
~A       DEPTH           CALI           CALI           DRHO             DT             GR            ILD            ILM            ITT            LLD           NPHI           RHOB             SP 
# ...
      4594.050       215.1540       229.7430      -0.011555        55.8750       109.0750    100000.0000     25338.3672         1.0000       737.9041         8.6100         2.6645        72.5250
      4594.200       215.1227       229.8700      -0.006965        55.7250       114.4250    100000.0000       206.2750         0.0000       737.9041         8.6200         2.6763        72.4000
      4594.350       215.0950       230.0605      -0.003395        55.6500       117.2500     75412.0000        62.6760         0.0000       744.7310         8.6500         2.6833        72.2250
      4594.500       215.0706       230.0605      -0.001610        55.7000       116.8000     25856.2891        59.6925         0.0000       722.7690         8.9100         2.6840        71.9750
      4594.650       215.0469       229.9335      -0.001612        55.8000       113.9000       571.5002        49.5403         0.0000       714.4961         9.2100         2.6805        71.7500
      4594.800      -999.2500      -999.2500    -999.250000      -999.2500      -999.2500      -999.2500      -999.2500      -999.2500      -999.2500      -999.2500      -999.2500      -999.2500
      4594.950       215.0192       229.8700      -0.002378        55.8500       109.9250     25222.3008        41.9010         0.0000       727.7800         9.3500         2.6748        71.5750
      4595.100       214.9875       229.9335      -0.003910        55.7750       106.4250     75095.0000        42.0688         0.0000       734.5129         9.3500         2.6690        71.4250
      4595.250       214.9622       230.0605      -0.007483        55.7000       105.3000    100000.0000        47.7758         0.0000       707.9460         9.4700         2.6655        71.2750
      4595.400       214.9360       230.0605      -0.012842        55.8000       108.0250    100000.0000        50.1588         0.0000       695.0249         9.7700         2.6637        71.1500
      4595.550       214.9037       229.7430      -0.017435        55.9250       113.4500    100000.0000        46.9952         0.0000       727.7800         9.9600         2.6622        70.9750
      4595.700       214.7528       228.9810      -0.019732        55.8750       117.8000    100000.0000        44.5925         0.0000       751.6221         9.8200         2.6613        70.8000
      4595.850       213.9743       228.0920      -0.019479        55.7000       118.2250    100000.0000        45.0130         0.0000       755.0920         9.6100         2.6605        70.7250
      4596.000       212.5593       227.6475      -0.017950        55.5500       115.5750    100000.0000        46.1682         0.0000       778.0359         9.7300         2.6585        70.7000
      4596.150       211.5244       227.4570      -0.016676        55.5250       113.2750    100000.0000        47.3505         0.0000       785.2361        10.2900         2.6563        70.7250
      4596.300       211.2464       227.0760      -0.014891        55.6000       113.7500    100000.0000        47.6070         0.0000       749.8940        11.0200         2.6578        70.7500
      4596.450       211.2146       226.7585      -0.011576        55.6500       116.2250    100000.0000        46.0845         0.0000       717.7939        11.5400         2.6648        70.7750
      4596.600       211.3122       226.7585      -0.007241        55.6750       118.1250    100000.0000        44.2180         0.0000       724.4360        11.5900         2.6737        70.7500
      4596.750       211.5426       226.6315      -0.003671        55.8000       118.3000    100000.0000        43.6305         0.0000       734.5129        11.0500         2.6790        70.7000
      4596.900       211.7673       226.3775      -0.002141        55.9500       117.9500    100000.0000        44.0085         0.0000       749.8940        10.0200         2.6800        70.8000
      4597.050       212.1101       226.3140      -0.000358        56.0000       118.2250    100000.0000        44.8060         0.0000       758.5769         9.2700         2.6835        70.8500
      4597.200       212.5821       226.1235       0.002702        55.9750       118.5500    100000.0000        47.7560         0.0000       743.0190         9.0300         2.6932        70.8000
      4597.350       212.9339       225.7425       0.003721        55.9000       118.0500     75123.5625        53.7225         0.0000       668.3440         9.1100         2.7030        70.9500
      4597.500       213.0360       225.5520       0.001679        55.8500       117.5250     25304.4297        57.1420         0.0000       629.5061         9.1600         2.7037        71.1500
      4597.650       213.0145       225.6790      -0.002149        55.9000       118.3250       415.1077        52.9640         0.0000       609.5359         9.0900         2.6947        71.1500
      4597.800       212.9919       225.8695      -0.006742        55.9750       119.7250     25411.2461        45.6612         0.0000       623.7339         9.0700         2.6838        71.0500
      4597.950       212.9646       225.9965      -0.010569        56.0000       119.7750     75176.9375        43.2858         0.0000       644.1689         9.1600         2.6775        71.0000
      4598.100       212.8079       226.0600      -0.013122        56.0000       117.9750    100000.0000        46.7120         0.0000       657.6580         9.1800         2.6762        71.0000
      4598.250       212.5231       225.9965      -0.014654        55.9500       115.5500    100000.0000        63.9212         0.0000       650.1289         9.1600         2.6768        71.0000
      4598.400       212.3665       225.8695      -0.015676        55.8000       113.5000     75353.1250     25065.7578         0.0000       668.3440         9.3000         2.6760        70.9750
      4598.550       212.3428       225.7425      -0.015677        55.6250       111.9000     25749.3164     50064.5859         0.0000       654.6360         9.7600         2.6728        70.9000
      4598.700       212.3212       225.5520      -0.013893        55.5250       111.1500       488.4248     25083.0273         0.0000       674.5281        10.4700         2.6690        70.7500
      4598.850       212.2950       225.4250      -0.011343        55.5250       111.6000       204.5278        58.4135         0.0000       746.4480        10.8000         2.6675        70.6000
      4599.000       212.2666       225.4885      -0.008283        55.6250       112.4500     25175.3711        36.3728         0.0000       785.2361        10.4600         2.6685        70.5250
      4599.150       212.2405       225.6155      -0.005734        55.7750       112.7500     75063.0625        74.4123         0.0000       805.3779         9.8300         2.6712        70.4250
      4599.300       212.2155       225.6155      -0.007011        55.9000       112.9000    100000.0000       101.6660         0.0000       822.2419         9.5300         2.6737        70.3500
      4599.450       212.0646       225.5520      -0.011604        55.9000       113.6500    100000.0000        76.1015         0.0000       827.9419         9.4800         2.6733        70.3750
      4599.600       211.7832       225.5520      -0.014667        55.6500       113.5500    100000.0000        48.5862         1.0000       816.5811         9.3700         2.6692        70.4250
      4599.750       211.6255       225.5520      -0.013648        55.2750       109.8500     75088.0625        45.1917         0.0000       824.1379         9.0400         2.6625        70.5000
      4599.900       211.6005       225.6790      -0.009823        55.0500       102.6500     25199.6250        43.4315         0.0000       814.7041         8.6700         2.6545        70.5750
      4600.050       211.4519       225.7425      -0.005743        55.0000        95.8250       149.8968        39.7092         0.0000       774.4609         8.6300         2.6493        70.5750
      4600.200       211.1718       225.6155      -0.004213        55.0000        92.8000       141.3838        37.0647         0.0000       709.5779         8.9500         2.6508        70.5000
