~Version Information Block
VERS .                 2.00:  CWLS LOG ASCII STANDARD - VERSION 2.00
WRAP .                   NO:  One line per depth step
~Well Information Block
#MNEM.UNIT        Data Type   Information
#---------- ----------------  -----------
STRT .M            3485.250:  START DEPTH
STOP .M            5334.750:  STOP DEPTH
STEP .M               0.150:  STEP
NULL .              -999.25:  NULL VALUE
COMP .                     :  COMPANY
WELL .            2-RI-1-PR:  WELL
FLD  .                     :  FIELD
LOC  .                     :  LOCATION
CTRY .                     :  COUNTRY
STAT .                     :  STATE
CNTY .                     :  COUNTY
SRVC .                     :  SERVICE COMPANY
DATE .                     :  DATE
API  .                     :  API NUMBER
UWI  .                     :  UNIQUE WELL ID
~Curve Information Block
#MNEM.UNIT         API CODE   Curve Description
#---------- ----------------  -----------------
DEPTH.M                    :  INDEX5513
CALI .MM                   :  Caliper
CALI .MM                   :  Caliper
DRHO .                     :  Bulk density correction
DT   .US/F                 :  Sonic delta-T
GR   .                     :  Gamma Ray
ILD  .                     :  Deep induction resistivity
ILM  .                     :  Medium induction resistivity
ITT  .                     :  Sonic Transit Time (Slowness)
LLD  .                     :  Deep laterolog resistivity
NPHI .%                    :  Neutron porosity
RHOB .                     :  Bulk density
SP   .                     :  Spontaneous potential
~Parameter Information Block
#MNEM.UNIT            Value   Description
#---------- ----------------  -----------
BS1  .              31 1/2":  Bit size 1
BS2  .              17 1/2":  Bit size 2
BS3  .              12 1/4":  Bit size 3
BSD1 .M                  83:  Total depth 1 measured by driller
BSD2 .M              1463.7:  Total depth 2 measured by driller
BSD3 .M              3491.8:  Total depth 3 measured by driller
CBD1 .M                82.5:  Casing shoe 1 - Driller depth
CBD2 .M              1460.3:  Casing shoe 2 - Driller depth
CBD3 .M              3491.5:  Casing shoe 3 - Driller depth
CS1  .                  20":  Casing shoe 1 - Casing size
CS2  .              13 3/8":  Casing shoe 2 - Casing size
CS3  .               9 5/8":  Casing shoe 3 - Casing size
CUR_INT_BOT.M              5334.9:  
EDF  .M               314.5:  Elevation of Drill Floor
EGL  .M               305.5:  Elevation of ground level
EKB  .M               314.8:  
QCCD .                 high:  Quality level of the Log data
QCCO .                     :  Company responsible for the Log quality control
QCDT .           1999/01/13:  Date of the Log quality control
QCRM .     carregado por Bucheb:  Comments on the Log quality
QCST .                final:  Status of the Log quality
TAPE_NAME.     2RI__0001__PR_2RI__0001__PR.dlis:  
PROJECT.             Mestrado:  
SET  .                 WIRE:  
~Other Information Block
REMARKS:
R1: VIDE DEMAIS ATRIBUTOS DE CABECALHO (LOG HEADER) NO FILE CORRESPONDENTE

R1: VIDE DEMAIS ATRIBUTOS DE CABECALHO (LOG HEADER) NO FILE CORRESPONDENTE

R1: VIDE DEMAIS ATRIBUTOS DE CABECALHO (LOG HEADER) NO FILE CORRESPONDENTE

TOOL_TABLE:
TOOL #0:
NAME:            FROM__CDN
DESCRIPTION:     OH WIRELINE
TRADEMARK-NAME:  FROM  CDN
GENERIC-NAME:    OH WIRELINE
STATUS:          TRUE
TOOL #0:
NAME:            FROM__BCS
DESCRIPTION:     OH WIRELINE
TRADEMARK-NAME:  FROM  BCS
GENERIC-NAME:    OH WIRELINE
STATUS:          TRUE
TOOL #0:
NAME:            FROM__DIL
DESCRIPTION:     OH WIRELINE
TRADEMARK-NAME:  FROM  DIL
GENERIC-NAME:    OH WIRELINE
STATUS:          TRUE
# 
~A       DEPTH           CALI           CALI           DRHO             DT             GR            ILD            ILM            ITT            LLD           NPHI           RHOB             SP 
# ...
      5205.150       240.7188       247.7122       0.245262        58.1884        29.1796       245.6949        17.3119         0.0000       109.3854         4.6644         2.2800        10.0548
      5205.300       237.7195       249.9399       0.248985        57.9355        30.1783       215.2933        33.5988         0.0000        94.4466         4.6450         2.3247        10.0098
      5205.450       237.7597       248.7577       0.238808        57.7203        30.1325        88.3247        61.9979         0.0000        87.7214         4.4734         2.3451         9.8703
      5205.600       238.6727       246.3073       0.210666        57.6310        29.3391        77.0844        44.2066         0.0000        90.1530         4.1341         2.3716         9.8259
      5205.750       239.9590       244.1060       0.164045        57.5918        29.0685        79.0979        34.5746         0.0000        94.3516         3.7030         2.4149         9.8313
      5205.900       240.9998       242.1573       0.106285        57.6274        30.2832        87.0455        31.5509         0.0000        96.0824         3.3171         2.4671         9.8618
      5206.050       239.8902       238.9499       0.057380        57.8009        35.2271       100.3010        27.8579         0.0000        96.9379         3.1300         2.5186         9.9408
      5206.200       236.8847       234.6259       0.027708        57.8990        42.7108       127.0527        25.2176         0.0000        95.1634         3.0653         2.5566        10.0193
      5206.350       234.6419       232.4533       0.020050        57.6464        47.5835       230.5960        24.7518         0.0000        91.7177         2.9853         2.5685        10.0493
      5206.500       234.1636       232.1511       0.037955        56.9428        48.8782       393.5840        25.7196         0.0000        90.8607         2.8745         2.5579        10.0547
      5206.650       234.5732       232.5901       0.070284        56.0134        48.1593       400.6467        27.6079         0.0000        93.3759         2.7791         2.5291        10.1093
      5206.800       234.9890       235.4233       0.104379        55.4604        46.1711       234.3139        30.2447         0.0000       113.1648         2.8208         2.4897        10.3131
      5206.950       235.0167       241.9284       0.134679        55.7093        43.5898       111.8934        32.4621         0.0000       128.6218         3.0901         2.4577        10.6168
      5207.100       233.7744       248.0676       0.156379        56.6343        41.5314        75.0891        31.9399         0.0000       118.4175         3.5261         2.4375        10.8698
      5207.250       230.7676       246.3806       0.179594        57.5339        42.1520        62.1457        27.8308         0.0000       108.0242         3.8100         2.4238        11.1224
      5207.400       227.6425       240.1450       0.211665        57.8073        46.0523        64.8633        21.4950         0.0000        92.4068         3.6068         2.4097        11.4252
      5207.550       225.7848       239.2056       0.238169        57.3043        50.9249        79.0617        17.5368         0.0000        91.5536         3.1150         2.3920        11.6791
      5207.700       225.7848       239.2056       0.238169        57.3043        50.9249        79.0617        17.5368         0.0000        91.5536         3.1150         2.3920        11.6791
      5207.850       224.5519       242.9378       0.248478        56.2500        53.7105        91.0860       509.1313         1.0000        91.5365         2.7461         2.3829        11.8097
      5208.000       223.1851       246.5535       0.236016        55.2958        53.5901        94.1591      1295.1233         0.0000       102.1499         2.5595         2.3958        11.7902
      5208.150       221.8164       248.4059       0.193439        55.0178        52.5775        89.5433      1113.3472         0.0000       117.1798         2.4785         2.4263        11.7201
      5208.300       220.8309       246.9650       0.136945        55.3408        52.2346        94.2666       355.0613         0.0000       134.4162         2.4431         2.4608        11.6005
      5208.450       220.3550       241.6062       0.085007        55.8144        52.2621       137.8113        61.2572         0.0000       172.1104         2.3848         2.4918        11.2583
      5208.600       220.2637       234.4872       0.038380        56.2639        52.0606       257.3235        39.8284         0.0000       164.3535         2.2964         2.5238        10.7684
      5208.750       220.3026       229.3967       0.007948        56.6880        51.1126       584.8005        26.6211         0.0000       158.4146         2.2243         2.5571        10.3772
      5208.900       220.3316       227.4606      -0.001737        56.8860        49.0509       986.9075        23.5180         0.0000       135.5323         2.2127         2.5778        10.1340
      5209.050       220.3529       227.1489      -0.003581        56.7336        45.7954       971.5464        24.0364         0.0000       108.7506         2.2533         2.5800         9.9401
      5209.200       220.3805       227.2252      -0.004399        56.4813        41.6444       559.7449        25.3058         0.0000        99.2021         2.2937         2.5740         9.6969
      5209.350       220.2867       227.3271      -0.003947        56.4292        37.1974       228.0945        26.9723         0.0000       114.8459         2.3040         2.5709         9.4546
      5209.500       219.9424       227.2899       0.002317        56.6026        33.4981       122.3501        31.0527         0.0000       156.7939         2.3000         2.5752         9.3606
      5209.650       219.5381       227.1012       0.016927        56.8010        32.1127       114.8332        37.6081         0.0000       176.5846         2.2955         2.5853         9.3653
      5209.800       219.2551       226.7831       0.030275        56.8490        32.8879       121.6241        44.0914         0.0000       179.8170         2.2905         2.5956         9.4704
      5209.950       219.0923       226.0992       0.029960        56.6466        33.8067       134.7301        51.2322         0.0000       171.7256         2.2865         2.6009         9.7243
      5210.100       219.0548       225.2955       0.017495        56.2434        34.2026       169.1911        61.0681         0.0000       174.8630         2.3126         2.6018         9.9272
      5210.250       219.0800       224.8608       0.004018        55.8904        37.1350       202.0679        78.3478         0.0000       202.4305         2.3991         2.6023         9.9816
      5210.400       219.1064       224.8078      -0.004152        55.7884        44.4674       198.4051        99.4249         0.0000       225.9098         2.6074         2.6053         9.9376
      5210.550       219.1340       225.1461      -0.007271        55.9616        51.7999       180.6457       101.0880         0.0000       227.9385         2.9371         2.6114         9.8434
      5210.700       219.1642       225.7383      -0.008108        56.2848        55.9260       174.7975        83.0162         0.0000       229.9855         3.1752         2.6151         9.7490
      5210.850       219.2006       226.0749      -0.008929        56.5582        55.8045       180.3018        71.9520         0.0000       225.7583         3.2001         2.6118         9.6550
      5211.000       219.3635       226.0898      -0.009993        56.6567        51.4365       202.5704        70.2171         0.0000       202.2040         3.0895         2.6030         9.6605
      5211.150       219.6479       225.9690      -0.012585        56.4794        47.3644       231.9057        66.8584         0.0000       150.7792         2.9189         2.5931         9.7649
      5211.300       219.9298       225.7203      -0.016959        56.1011        45.7467       243.9231        63.8419         0.0000       150.7455         2.7164         2.5861         9.8190
