~Version Information Block
VERS .                 2.00:  CWLS LOG ASCII STANDARD - VERSION 2.00
WRAP .                   NO:  One line per depth step
~Well Information Block
#MNEM.UNIT        Data Type   Information
#---------- ----------------  -----------
STRT .M            3485.250:  START DEPTH
STOP .M            5334.750:  STOP DEPTH
STEP .M               0.150:  STEP
NULL .              -999.25:  NULL VALUE
COMP .                     :  COMPANY
WELL .            2-RI-1-PR:  WELL
FLD  .                     :  FIELD
LOC  .                     :  LOCATION
CTRY .                     :  COUNTRY
STAT .                     :  STATE
CNTY .                     :  COUNTY
SRVC .                     :  SERVICE COMPANY
DATE .                     :  DATE
API  .                     :  API NUMBER
UWI  .                     :  UNIQUE WELL ID
~Curve Information Block
#MNEM.UNIT         API CODE   Curve Description
#---------- ----------------  -----------------
DEPTH.M                    :  INDEX5513
CALI .MM                   :  Caliper
CALI .MM                   :  Caliper
DRHO .                     :  Bulk density correction
DT   .US/F                 :  Sonic delta-T
GR   .                     :  Gamma Ray
ILD  .                     :  Deep induction resistivity
ILM  .                     :  Medium induction resistivity
ITT  .                     :  Sonic Transit Time (Slowness)
LLD  .                     :  Deep laterolog resistivity
NPHI .%                    :  Neutron porosity
RHOB .                     :  Bulk density
SP   .                     :  Spontaneous potential
~Parameter Information Block
#MNEM.UNIT            Value   Description
#---------- ----------------  -----------
BS1  .              31 1/2":  Bit size 1
BS2  .              17 1/2":  Bit size 2
BS3  .              12 1/4":  Bit size 3
BSD1 .M                  83:  Total depth 1 measured by driller
BSD2 .M              1463.7:  Total depth 2 measured by driller
BSD3 .M              3491.8:  Total depth 3 measured by driller
CBD1 .M                82.5:  Casing shoe 1 - Driller depth
CBD2 .M              1460.3:  Casing shoe 2 - Driller depth
CBD3 .M              3491.5:  Casing shoe 3 - Driller depth
CS1  .                  20":  Casing shoe 1 - Casing size
CS2  .              13 3/8":  Casing shoe 2 - Casing size
CS3  .               9 5/8":  Casing shoe 3 - Casing size
CUR_INT_BOT.M              5334.9:  
EDF  .M               314.5:  Elevation of Drill Floor
EGL  .M               305.5:  Elevation of ground level
EKB  .M               314.8:  
QCCD .                 high:  Quality level of the Log data
QCCO .                     :  Company responsible for the Log quality control
QCDT .           1999/01/13:  Date of the Log quality control
QCRM .     carregado por Bucheb:  Comments on the Log quality
QCST .                final:  Status of the Log quality
TAPE_NAME.     2RI__0001__PR_2RI__0001__PR.dlis:  
PROJECT.             Mestrado:  
SET  .                 WIRE:  
~Other Information Block
REMARKS:
R1: VIDE DEMAIS ATRIBUTOS DE CABECALHO (LOG HEADER) NO FILE CORRESPONDENTE

R1: VIDE DEMAIS ATRIBUTOS DE CABECALHO (LOG HEADER) NO FILE CORRESPONDENTE

R1: VIDE DEMAIS ATRIBUTOS DE CABECALHO (LOG HEADER) NO FILE CORRESPONDENTE

TOOL_TABLE:
TOOL #0:
NAME:            FROM__CDN
DESCRIPTION:     OH WIRELINE
TRADEMARK-NAME:  FROM  CDN
GENERIC-NAME:    OH WIRELINE
STATUS:          TRUE
TOOL #0:
NAME:            FROM__BCS
DESCRIPTION:     OH WIRELINE
TRADEMARK-NAME:  FROM  BCS
GENERIC-NAME:    OH WIRELINE
STATUS:          TRUE
TOOL #0:
NAME:            FROM__DIL
DESCRIPTION:     OH WIRELINE
TRADEMARK-NAME:  FROM  DIL
GENERIC-NAME:    OH WIRELINE
STATUS:          TRUE
# 
~A       DEPTH           CALI           CALI           DRHO             DT             GR            ILD            ILM            ITT            LLD           NPHI           RHOB             SP 
# ...
      4222.350       247.1207       263.0170       0.145623        59.0000       153.2750     75017.5625         9.6563         0.0000       130.6170        14.8700         2.7347        54.3750
      4222.500       247.3708       264.3505       0.164259        58.9750       155.6000    100000.0000         9.8078         1.0000       115.6110        13.3800         2.7083        54.0500
      4222.650       248.3813       265.1125       0.165221        58.9250       156.5250    100000.0000     25008.8594         0.0000        94.1890        13.8800         2.6945        53.7750
      4222.800       252.4329       266.4460       0.165672        58.8250       155.1500     75002.1250     75003.2500         0.0000        70.1460        16.2700         2.6967        53.5250
      4222.950       257.8788       267.7160       0.173296        58.5500       152.8250     25004.8906    100000.0000         0.0000        46.9890        18.1500         2.7023        53.3000
      4223.100       259.3954       268.0970       0.191685        58.1500       151.3750         3.9662     75000.4375         0.0000        27.3530        17.1200         2.6973        53.2250
      4223.250       257.9968       269.4940       0.215456        57.9500       151.2750         2.3465     25001.3086         0.0000        12.2180        14.1500         2.6805        53.4000
      4223.400       259.5133       274.3200       0.224616        58.2000       151.9500         2.5498         2.2153         0.0000        10.3990        11.9900         2.6622        53.8000
      4223.550       262.5508       280.2255       0.205072        58.9000       153.2500     25002.2539     25002.3828         0.0000        15.1710        11.9100         2.6547        54.3250
      4223.700      -999.2500      -999.2500    -999.250000      -999.2500      -999.2500      -999.2500      -999.2500      -999.2500      -999.2500      -999.2500      -999.2500      -999.2500
      4223.850       264.4481       282.6385       0.158130        59.8250       155.0500     75000.8125     75001.0000         0.0000        21.0380        13.3100         2.6622        54.7250
      4224.000       266.3452       281.5590       0.104022        60.5500       156.1500     75010.1875     75002.1875         0.0000        35.2370        14.8300         2.6788        54.9750
      4224.150       264.9466       278.1300       0.073986        60.9000       155.0750     25028.2227     25006.5898         0.0000        53.5800        15.8400         2.6978        55.2500
      4224.300       257.8447       272.4785       0.076484        61.1750       152.0500        34.5155        14.0785         0.0000        70.6320        16.7800         2.7207        55.5000
      4224.450       250.1090       267.6525       0.103574        61.5250       149.4000        29.9270        27.9668         0.0000        86.6960        18.2400         2.7500        55.6250
      4224.600       246.1749       266.0015       0.139885        61.7500       149.0000        22.4340        33.8107         0.0000       104.9540        19.8300         2.7737        55.4750
      4224.750       245.0289       265.9380       0.170566        61.7750       150.6500        19.8680        24.8635         0.0000       114.8150        20.9100         2.7655        55.0250
      4224.900       244.7716       265.9380       0.191002        61.6250       152.9750        24.0650        22.9740         0.0000       120.2270        21.7500         2.7045        54.4500
      4225.050       244.7053       265.9380       0.198370        61.3250       153.9000        24.3850        29.3060         0.0000       123.0270        22.8400         2.5997        53.8250
      4225.200       244.5114       265.9380       0.184225        61.0750       151.1500        19.4150        27.0820         0.0000       125.6030        24.0900         2.4937        53.1500
      4225.350       244.0632       266.1920       0.133444        61.0000       143.9500        15.3945        21.4600         0.0000       125.8930        25.3600         2.4405        52.5250
      4225.500       243.2347       266.7635       0.059855        61.0000       134.6000        15.9595        20.3997         0.0000       126.4740        24.9100         2.4695        52.1500
      4225.650       242.0899       267.0175       0.009841        61.0750       127.2500        25.3927        23.4642         0.0000       125.6030        22.0500         2.5600        51.9750
      4225.800       241.0719       266.8270      -0.001984        61.2500       124.2000     25028.1484        60.0457         0.0000       123.5950        19.8300         2.6578        51.8000
      4225.950       240.9407       266.7000       0.001298        61.1500       124.7750     75011.5000     25086.3203         0.0000       119.9500        18.7200         2.7252        51.7000
      4226.100       242.2043       266.8905       0.005843        60.4250       127.7250    100000.0000     75039.3125         0.0000       115.6110        18.0100         2.7615        51.7000
      4226.250       244.9888       267.2080       0.010908        59.3750       132.9250    100000.0000    100000.0000         0.0000       109.1440        15.0800         2.7773        51.6500
      4226.400       249.1673       267.3985       0.015717        58.5500       140.3500    100000.0000    100000.0000         0.0000       100.0000        10.7700         2.7800        51.6750
      4226.550       254.6131       268.0335       0.017983        58.3250       148.2250    100000.0000     75003.2500         0.0000        87.4980         8.6900         2.7773        52.0500
      4226.700       259.8054       269.0495       0.016403        58.7500       153.5000    100000.0000     25006.9961         0.0000        71.9450        10.1300         2.7730        52.7500
      4226.850       259.6745       269.6845       0.012742        59.4750       154.4250     75001.2500         4.3900         0.0000        53.5800        15.0400         2.7662        53.2500
      4227.000       254.0929       270.1290       0.009602        60.0500       152.3750     25002.7813         0.8987         0.0000        35.5630        18.7400         2.7583        53.2750
      4227.150       250.2856       270.6370       0.008509        60.0750       150.7500         1.8127         0.3842         0.0000        20.4640        18.9500         2.7545        53.2750
      4227.300       249.7748       271.1450       0.008695        59.3750       151.4000         0.4622         0.2653         0.0000         9.8170        18.0700         2.7583        53.8250
      4227.450       250.1515       271.4625       0.008898        58.2250       152.9500         0.2303         0.2550         0.0000         3.8990        18.7100         2.7660        55.0750
      4227.600       251.9218       271.7165       0.009101        57.1000       152.9500         0.1680         0.2550         0.0000         1.9770        20.0000         2.7710        56.0000
      4227.750       255.8465       272.4150       0.008503        56.4500       150.7250         0.1680         0.2550         1.0000         1.4000        19.9600         2.7695        56.0500
      4227.900       258.8841       273.3040       0.007395        56.5750       147.5250         0.1680         0.2550         0.0000         1.7780        18.4400         2.7627        56.1000
      4228.050       257.6577       273.6215       0.006280        57.3000       144.8250         0.1680         0.2753         0.0000         4.5920        17.1600         2.7545        56.5500
      4228.200       254.9576       273.4945       0.003798        58.2000       143.6500         0.1680         0.4087         0.0000        12.4170        17.2100         2.7490        57.2500
      4228.350       253.8644       273.5580       0.000240        59.1250       143.9250         0.1692         0.6543         0.0000        22.0800        18.4000         2.7498        57.7750
      4228.500       254.8871       273.9390      -0.002810        60.0250       144.2500         0.3740         0.8978         0.0000        34.1980        19.8900         2.7557        58.0000
