~Version Information Block
VERS .                 2.00:  CWLS LOG ASCII STANDARD - VERSION 2.00
WRAP .                   NO:  One line per depth step
~Well Information Block
#MNEM.UNIT        Data Type   Information
#---------- ----------------  -----------
STRT .M            3485.250:  START DEPTH
STOP .M            5334.750:  STOP DEPTH
STEP .M               0.150:  STEP
NULL .              -999.25:  NULL VALUE
COMP .                     :  COMPANY
WELL .            2-RI-1-PR:  WELL
FLD  .                     :  FIELD
LOC  .                     :  LOCATION
CTRY .                     :  COUNTRY
STAT .                     :  STATE
CNTY .                     :  COUNTY
SRVC .                     :  SERVICE COMPANY
DATE .                     :  DATE
API  .                     :  API NUMBER
UWI  .                     :  UNIQUE WELL ID
~Curve Information Block
#MNEM.UNIT         API CODE   Curve Description
#---------- ----------------  -----------------
DEPTH.M                    :  INDEX5513
CALI .MM                   :  Caliper
CALI .MM                   :  Caliper
DRHO .                     :  Bulk density correction
DT   .US/F                 :  Sonic delta-T
GR   .                     :  Gamma Ray
ILD  .                     :  Deep induction resistivity
ILM  .                     :  Medium induction resistivity
ITT  .                     :  Sonic Transit Time (Slowness)
LLD  .                     :  Deep laterolog resistivity
NPHI .%                    :  Neutron porosity
RHOB .                     :  Bulk density
SP   .                     :  Spontaneous potential
~Parameter Information Block
#MNEM.UNIT            Value   Description
#---------- ----------------  -----------
BS1  .              31 1/2":  Bit size 1
BS2  .              17 1/2":  Bit size 2
BS3  .              12 1/4":  Bit size 3
BSD1 .M                  83:  Total depth 1 measured by driller
BSD2 .M              1463.7:  Total depth 2 measured by driller
BSD3 .M              3491.8:  Total depth 3 measured by driller
CBD1 .M                82.5:  Casing shoe 1 - Driller depth
CBD2 .M              1460.3:  Casing shoe 2 - Driller depth
CBD3 .M              3491.5:  Casing shoe 3 - Driller depth
CS1  .                  20":  Casing shoe 1 - Casing size
CS2  .              13 3/8":  Casing shoe 2 - Casing size
CS3  .               9 5/8":  Casing shoe 3 - Casing size
CUR_INT_BOT.M              5334.9:  
EDF  .M               314.5:  Elevation of Drill Floor
EGL  .M               305.5:  Elevation of ground level
EKB  .M               314.8:  
QCCD .                 high:  Quality level of the Log data
QCCO .                     :  Company responsible for the Log quality control
QCDT .           1999/01/13:  Date of the Log quality control
QCRM .     carregado por Bucheb:  Comments on the Log quality
QCST .                final:  Status of the Log quality
TAPE_NAME.     2RI__0001__PR_2RI__0001__PR.dlis:  
PROJECT.             Mestrado:  
SET  .                 WIRE:  
~Other Information Block
REMARKS:
R1: VIDE DEMAIS ATRIBUTOS DE CABECALHO (LOG HEADER) NO FILE CORRESPONDENTE

R1: VIDE DEMAIS ATRIBUTOS DE CABECALHO (LOG HEADER) NO FILE CORRESPONDENTE

R1: VIDE DEMAIS ATRIBUTOS DE CABECALHO (LOG HEADER) NO FILE CORRESPONDENTE

TOOL_TABLE:
TOOL #0:
NAME:            FROM__CDN
DESCRIPTION:     OH WIRELINE
TRADEMARK-NAME:  FROM  CDN
GENERIC-NAME:    OH WIRELINE
STATUS:          TRUE
TOOL #0:
NAME:            FROM__BCS
DESCRIPTION:     OH WIRELINE
TRADEMARK-NAME:  FROM  BCS
GENERIC-NAME:    OH WIRELINE
STATUS:          TRUE
TOOL #0:
NAME:            FROM__DIL
DESCRIPTION:     OH WIRELINE
TRADEMARK-NAME:  FROM  DIL
GENERIC-NAME:    OH WIRELINE
STATUS:          TRUE
# 
~A       DEPTH           CALI           CALI           DRHO             DT             GR            ILD            ILM            ITT            LLD           NPHI           RHOB             SP 
# ...
      5079.150       272.1172       269.8343       0.015590        62.5383        34.2389        17.1085        26.2696         1.0000        12.2852        13.8642         2.2643        41.0900
      5079.300       255.5723       263.8609       0.042185        62.0857        32.2259        15.8164        22.7483         0.0000        13.1053        11.3209         2.4188        41.1315
      5079.450       247.6277       263.5523       0.091345        61.6081        30.5866        14.9315        17.8405         0.0000        13.3499         9.8058         2.4531        41.1717
      5079.600       245.8791       264.2307       0.144057        61.3810        29.8432        14.5514        13.7361         0.0000        13.3518         9.2733         2.4142        40.9159
      5079.750       244.6373       266.8033       0.185613        61.5292        29.3987        14.1496        10.5113         0.0000        12.7541         9.2096         2.3315        40.0648
      5079.900       244.5320       273.1669       0.210685        61.9023        28.9547        13.6933         8.6941         0.0000        12.4075         9.4186         2.2292        38.8658
      5080.050      -999.2500      -999.2500    -999.250000      -999.2500      -999.2500      -999.2500      -999.2500      -999.2500      -999.2500      -999.2500      -999.2500      -999.2500
      5080.200       246.4505       282.4247       0.220035        62.4254        28.5105        13.3127         8.1403         0.0000        10.7115        10.0208         2.1491        37.9666
      5080.350       251.6597       290.9294       0.221276        62.9739        28.0665        13.0339         8.0959         0.0000         9.8613        10.9857         2.1069        37.4646
      5080.500       263.8266       295.7844       0.220234        63.3975        27.6966        12.8194         8.3201         0.0000         9.5057        12.0715         2.0909        37.0606
      5080.650       280.1686       296.0952       0.218431        63.6459        27.4012        12.6957         8.7710         0.0000         9.2486        12.9304         2.0920        36.7043
      5080.800       289.0469       293.3808       0.216378        63.4936        27.1813        12.6612         9.3937         0.0000         9.4212        13.2904         2.1034        36.5453
      5080.950       287.4257       289.0345       0.214832        62.9661        27.1847        12.6849        10.1293         0.0000        10.5230        13.4385         2.1276        36.6344
      5081.100       281.5029       284.6906       0.213795        62.3886        27.5614        12.7966        10.7106         0.0000        11.0195        13.7833         2.1617        36.9204
      5081.250       275.2026       283.4952       0.210474        61.8362        28.3124        13.0915        10.7468         0.0000        12.0835        14.3702         2.1650        37.3541
      5081.400       270.5486       286.0704       0.197517        61.4586        29.2124        13.6780        10.4688         0.0000        12.7714        14.9570         2.1007        37.8389
      5081.550       268.9254       292.9302       0.173656        61.3564        30.4106        14.4507        10.3629         0.0000        12.8907        15.2868         2.0148        38.3229
      5081.700       269.4507       300.5533       0.152836        61.3290        32.4309        15.3440        10.4530         0.0000        12.8928        15.5559         1.9827        38.6080
      5081.850       269.8523       295.4511       0.147736        61.2517        35.4227        16.6916        10.7708         0.0000        13.3777        15.8855         2.0215        38.7951
      5082.000       266.5868       279.6364       0.158867        61.0245        39.0120        18.4643        13.1401         0.0000        15.0796        15.9585         2.0913        39.3285
      5082.150       258.8942       272.5141       0.179127        60.6472        42.3026        20.0719        17.3570         0.0000        18.4656        15.3510         2.1336        40.0607
      5082.300       251.7084       275.8526       0.197357        60.1450        43.8751        21.8859        18.5721         0.0000        21.5966        14.0173         2.1256        40.7431
      5082.450       248.3212       277.8058       0.205190        59.5425        42.9079        24.1484        16.5971         0.0000        22.4079        12.7285         2.0940        41.3251
      5082.600       247.4638       274.7162       0.204656        59.2900        40.2225        26.0632        16.3251         0.0000        24.1235        12.0750         2.0725        41.6106
      5082.750       247.1045       273.2639       0.203865        59.5380        37.3129        26.4902        18.4592         0.0000        23.2561        11.6639         2.0663        41.6010
      5082.900       249.1457       279.2472       0.206370        60.0367        35.3002        24.9062        19.5943         0.0000        22.4178        11.2377         2.0691        41.4195
      5083.050       257.6416       293.0414       0.210908        60.8606        34.4081        22.7867        17.9902         0.0000        21.0219        11.1745         2.0758        41.1380
      5083.200       270.1870       313.1353       0.211391        61.8093        33.9633        20.8853        14.9110         0.0000        18.4838        11.6406         2.0542        40.7576
      5083.350       281.7216       336.1283       0.199450        62.4077        32.9209        19.4531        12.0103         0.0000        16.1031        12.5752         1.9806        40.3287
      5083.500       294.7749       351.1845       0.169759        62.6309        31.2068        19.2510         9.7967         0.0000        13.9016        14.0392         1.8967        40.0708
      5083.650       307.5742       339.2764       0.133980        62.6041        30.0898        19.6454         9.2232         0.0000        13.9030        15.7752         1.8621        40.1077
      5083.800       298.9953       303.9305       0.120513        62.3518        30.4665        19.7721        21.4523         0.0000        14.6938        16.8610         1.8956        40.3442
      5083.950       268.6593       275.6425       0.136462        61.9239        32.3378        19.7192        37.6968         0.0000        16.7162        16.6009         1.9727        40.5833
      5084.100       249.0787       267.2633       0.168385        61.4213        34.9559        19.8477        32.6125         0.0000        19.3702        15.4487         2.0560        40.7227
      5084.250       250.3899       267.0163       0.201293        60.0167        40.4910        20.5672        33.1802         0.0000        26.9844        12.4793         2.2176        40.6035
      5084.400       252.1829       267.0778       0.165008        59.0387        42.8854        23.6433        46.7387         0.0000        29.5899        10.9338         2.3010        40.6424
      5084.550       251.1961       259.9529       0.101340        58.3607        44.9809        29.6178        39.9996         0.0000        31.5629        10.0990         2.3956        40.8785
      5084.700       247.8031       249.0498       0.039195        58.1583        50.2882        41.7411        29.7842         0.0000        33.6674        10.2018         2.4817        41.0652
      5084.850       243.6531       243.1947       0.003667        58.1565        60.9740        60.5752        29.7752         0.0000        36.5783        11.3180         2.5585        41.1025
      5085.000       241.0238       241.6266      -0.005241        57.9542        73.0793        71.7588        33.1121         0.0000        43.5722        13.0086         2.6218        41.0924
      5085.150       240.1630       241.3103      -0.004762        57.4763        82.9435        69.6374        34.8926         0.0000        51.9031        14.1090         2.6545        41.0853
      5085.300       239.9298       241.3717      -0.004531        57.0240        82.9435        69.0933        33.3810         0.0000        59.0484        14.3328         2.6697        41.0762
