~Version Information Block
VERS .                 2.00:  CWLS LOG ASCII STANDARD - VERSION 2.00
WRAP .                   NO:  One line per depth step
~Well Information Block
#MNEM.UNIT        Data Type   Information
#---------- ----------------  -----------
STRT .M            3485.250:  START DEPTH
STOP .M            5334.750:  STOP DEPTH
STEP .M               0.150:  STEP
NULL .              -999.25:  NULL VALUE
COMP .                     :  COMPANY
WELL .            2-RI-1-PR:  WELL
FLD  .                     :  FIELD
LOC  .                     :  LOCATION
CTRY .                     :  COUNTRY
STAT .                     :  STATE
CNTY .                     :  COUNTY
SRVC .                     :  SERVICE COMPANY
DATE .                     :  DATE
API  .                     :  API NUMBER
UWI  .                     :  UNIQUE WELL ID
~Curve Information Block
#MNEM.UNIT         API CODE   Curve Description
#---------- ----------------  -----------------
DEPTH.M                    :  INDEX5513
CALI .MM                   :  Caliper
CALI .MM                   :  Caliper
DRHO .                     :  Bulk density correction
DT   .US/F                 :  Sonic delta-T
GR   .                     :  Gamma Ray
ILD  .                     :  Deep induction resistivity
ILM  .                     :  Medium induction resistivity
ITT  .                     :  Sonic Transit Time (Slowness)
LLD  .                     :  Deep laterolog resistivity
NPHI .%                    :  Neutron porosity
RHOB .                     :  Bulk density
SP   .                     :  Spontaneous potential
~Parameter Information Block
#MNEM.UNIT            Value   Description
#---------- ----------------  -----------
BS1  .              31 1/2":  Bit size 1
BS2  .              17 1/2":  Bit size 2
BS3  .              12 1/4":  Bit size 3
BSD1 .M                  83:  Total depth 1 measured by driller
BSD2 .M              1463.7:  Total depth 2 measured by driller
BSD3 .M              3491.8:  Total depth 3 measured by driller
CBD1 .M                82.5:  Casing shoe 1 - Driller depth
CBD2 .M              1460.3:  Casing shoe 2 - Driller depth
CBD3 .M              3491.5:  Casing shoe 3 - Driller depth
CS1  .                  20":  Casing shoe 1 - Casing size
CS2  .              13 3/8":  Casing shoe 2 - Casing size
CS3  .               9 5/8":  Casing shoe 3 - Casing size
CUR_INT_BOT.M              5334.9:  
EDF  .M               314.5:  Elevation of Drill Floor
EGL  .M               305.5:  Elevation of ground level
EKB  .M               314.8:  
QCCD .                 high:  Quality level of the Log data
QCCO .                     :  Company responsible for the Log quality control
QCDT .           1999/01/13:  Date of the Log quality control
QCRM .     carregado por Bucheb:  Comments on the Log quality
QCST .                final:  Status of the Log quality
TAPE_NAME.     2RI__0001__PR_2RI__0001__PR.dlis:  
PROJECT.             Mestrado:  
SET  .                 WIRE:  
~Other Information Block
REMARKS:
R1: VIDE DEMAIS ATRIBUTOS DE CABECALHO (LOG HEADER) NO FILE CORRESPONDENTE

R1: VIDE DEMAIS ATRIBUTOS DE CABECALHO (LOG HEADER) NO FILE CORRESPONDENTE

R1: VIDE DEMAIS ATRIBUTOS DE CABECALHO (LOG HEADER) NO FILE CORRESPONDENTE

TOOL_TABLE:
TOOL #0:
NAME:            FROM__CDN
DESCRIPTION:     OH WIRELINE
TRADEMARK-NAME:  FROM  CDN
GENERIC-NAME:    OH WIRELINE
STATUS:          TRUE
TOOL #0:
NAME:            FROM__BCS
DESCRIPTION:     OH WIRELINE
TRADEMARK-NAME:  FROM  BCS
GENERIC-NAME:    OH WIRELINE
STATUS:          TRUE
TOOL #0:
NAME:            FROM__DIL
DESCRIPTION:     OH WIRELINE
TRADEMARK-NAME:  FROM  DIL
GENERIC-NAME:    OH WIRELINE
STATUS:          TRUE
# 
~A       DEPTH           CALI           CALI           DRHO             DT             GR            ILD            ILM            ITT            LLD           NPHI           RHOB             SP 
# ...
      3982.950       258.6777       241.4270       0.233558        48.9750        38.8000       199.5323        65.4747         0.0000       436.5161        11.3800         2.8053        55.2500
      3983.100       258.7210       241.3000       0.249464        49.2500        39.2500       203.7843        47.3087         0.0000       414.9541        11.3900         2.7882        55.0500
      3983.250       255.4658       241.4270       0.249462        49.3250        39.5250       201.6720        33.3250         0.0000       389.9409        10.8200         2.7222        54.9750
      3983.400       248.0383       241.4905       0.248954        49.2250        39.9500       182.3047        28.4433         0.0000       366.4370        10.1300         2.6590        54.7750
      3983.550       238.7188       241.3635       0.234810        49.2500        40.2250       179.6927        35.1855         0.0000       345.9399         9.9300         2.6305        54.5000
      3983.700       233.0722       240.8555       0.195413        49.5000        40.1250       203.8200        47.4483         0.0000       331.1311        10.1100         2.6482        54.4000
      3983.850       232.3566       239.1410       0.157026        49.5000        39.9750       205.3358        53.8030         0.0000       318.4199        10.4800         2.7075        54.3750
      3984.000       233.0290       236.7915       0.148185        49.0250        40.0500       189.8653        49.6995         0.0000       307.6089        11.0200         2.7870        54.2500
      3984.150       233.0724       235.2040       0.164344        48.6500        40.2750       205.8927        41.3935         0.0000       299.9160        11.4500         2.8507        54.0250
      3984.300       233.1056       234.1880       0.200705        48.8500        40.7500       301.4746        33.3488         0.0000       299.2261        11.5700         2.8655        53.7500
      3984.450       234.6550       233.2990       0.240096        49.3500        43.0000       518.5195        27.2617         0.0000       302.6909        11.5600         2.8185        53.2500
      3984.600       238.6209       232.6640       0.255497        50.0250        50.9750       701.3904        25.7262         0.0000       311.8889        11.5300         2.7160        52.4000
      3984.750       242.7132       232.2830       0.255494        51.3500        69.0500       643.4805        28.1575         0.0000       325.8369        11.6400         2.5800        51.4500
      3984.900       243.3823       233.1720       0.255491        53.4750        96.6500       444.4158        30.6312         0.0000       340.4080        11.8000         2.4493        50.5500
      3985.050       240.2553       236.1565       0.252459        55.9750       125.8500       278.0134        30.2802         0.0000       350.7520        11.4100         2.3643        49.7000
      3985.200       236.4975       239.2045       0.230487        58.1250       146.5000       176.5453        26.7482         0.0000       354.8130        10.6200         2.3425        49.0250
      3985.350       232.8679       240.4110       0.175938        59.0750       153.1500       125.5050        21.7387         0.0000       348.3369         9.6300         2.3728        48.4750
      3985.500       226.2044       240.5380       0.107249        58.6000       147.3000       100.8005        18.4012         1.0000       333.4260         9.2900         2.4325        47.8500
      3985.650      -999.2500      -999.2500    -999.250000      -999.2500      -999.2500      -999.2500      -999.2500      -999.2500      -999.2500      -999.2500      -999.2500      -999.2500
      3985.800       216.5054       239.7760       0.048407        57.3500       134.8500        85.1090        18.6412         0.0000       311.8889        10.2200         2.5010        47.0250
      3985.950       208.4540       237.8710       0.008000        56.0500       122.3250        72.5350        21.3572         0.0000       281.1899        13.2400         2.5575        45.8250
      3986.100       205.0840       236.2835      -0.008670        55.0000       114.6250        61.9720        24.7610         0.0000       232.2740        16.7500         2.5877        44.2250
      3986.250       204.8710       235.7755      -0.007662        54.3250       113.8000        51.4690        29.9532         0.0000       184.0770        18.1700         2.6003        42.5750
      3986.400       207.5704       235.7120       0.004709        54.1500       118.9000        41.5975        39.7300         0.0000       150.6610        16.3100         2.6225        41.2250
      3986.550       212.7994       235.8390       0.027434        54.5750       127.3250        36.4325        47.5365         0.0000       125.0260        12.4600         2.6715        40.3250
      3986.700       218.5227       236.9820       0.054704        55.4750       137.7250        37.2213        41.1080         0.0000       107.6470         8.9400         2.7360        39.7500
      3986.850       224.1228       239.4585       0.076671        56.4000       152.1000        41.8000        27.0672         0.0000       111.1730         6.6800         2.7933        39.2000
      3987.000       226.8206       241.8715       0.080456        57.0000       171.3750        87.1130        19.0695         0.0000       116.6810         5.1800         2.8325        38.7000
      3987.150       226.4828       243.7765       0.062271        57.2250       188.9500     25117.0625        16.3158         0.0000       101.1580         4.2800         2.8547        38.3750
      3987.300       226.2715       245.4910       0.031713        57.2500       194.4000     75052.3125        17.9622         0.0000        77.0900         3.4200         2.8577        38.1000
      3987.450       226.6926       246.6340       0.006204        57.4000       184.2250    100000.0000        20.3105         0.0000        53.4560         2.7100         2.8360        37.6750
      3987.600       227.2485       247.7135      -0.004657        57.8000       164.9500    100000.0000        16.1642         0.0000        33.1130         2.7300         2.7952        37.1000
      3987.750       227.6746       249.2375      -0.008952        58.3000       145.2750     75002.1250        11.8162         0.0000        22.2330         4.0700         2.7590        36.5500
      3987.900       227.8328       250.4440       0.000893        58.7250       129.3250     25005.1563        10.6433         0.0000        25.8820         7.1800         2.7587        36.0250
      3988.050       227.6148       250.8885       0.060992        58.9500       116.8750         4.6163         7.3413         0.0000        35.4000        12.0700         2.7992        35.3500
      3988.200       227.1522       251.0790       0.156696        59.0250       123.9500         2.7860         3.3790         0.0000        46.4510        16.3300         2.8313        34.8250
      3988.350       227.0623       251.4600       0.219067        59.2750       136.4750     25001.7773         1.4837         0.0000        48.4170        15.7700         2.8010        34.9000
      3988.500       228.4853       253.2380       0.231438        60.1000       148.4500     75000.5625         0.8122         0.0000        40.2720        11.1700         2.7215        35.5000
      3988.650       233.0753       256.6670       0.221334        61.4750       155.9500     75007.8125         0.5905         0.0000        30.1300         7.2000         2.6528        35.9500
      3988.800       238.1779       259.2070       0.206432        62.7000       158.5000     25025.0273         0.7863         0.0000        19.4540         5.2000         2.6313        35.6000
      3988.950       240.1200       260.2865       0.191783        63.0250       157.1250        63.1617     25000.8594         0.0000        10.0930         4.8100         2.6462        35.1500
      3989.100       242.0589       261.2390       0.172083        62.5500       153.3750     25082.5078     75000.3125         0.0000         8.6100         4.9800         2.6698        35.3250
